master_ai_id,year,master_ai_name,address,longitude,latitude,county,municipality,state_code,postal_code,permit_no,tracking_number,approval_issued,work_type,Fill_Cubic_Yards_agg,High_Marsh_Created_Acres_agg,Length_Feet_agg.x,Low_Marsh_Created_Acres_agg,Total_Marsh_Area_Created_Acres_agg,Width_Feet_agg.x,Height_Above_MHWL_agg,Length_Feet_agg.y,Maximum_Extent_Channelward_Feet_agg,Width_Feet_agg.y,sill_count
6665,2017,Jefferson Patterson Park & Museum,10515 Mackall Road ,-76.50666667,38.38972222,Calvert,Saint Leonard,MD,20685,17-WL-0731,201761282,10/16/2017,Marsh Establishment,2711,0.55,1371,0.39,0.94,23,NA,NA,NA,NA,NA
10747,2022,Craftsmen Developers LLC,919 Wise Ave ,-76.479678,39.251162,Baltimore,Dundalk,MD,21222,22-WL-0073,202260184,12/1/2022,Marsh Establishment,1786,0.232,672,0.182,0.413,32,2.5,692,50,18,1
19316,2012,33 Stahl Point LLC,33 Stahl Point Rd ,-76.58333333,39.20277778,Anne Arundel,Curtis Bay,MD,21226,12-WL-0370,201161658,10/26/2012,Marsh Establishment,733,0,449,2.3,2.3,22,NA,581,34,12,1
22742,2014,YMCA Camp Letts,4003 Camp Letts Rd ,-76.52638889,38.88861111,Anne Arundel,Edgewater,MD,21037,14-WL-0713,201461284,1/18/2015,Marsh Establishment,1250,0.188,954,0.188,0.3763,17,NA,502,267,78,7
22791,2015,Thompson Creek Townhomes,1509 Marion Quimby Dr ,-76.31555556,38.97277778,Queen Anne's,Stevensville,MD,21666,15-WL-1024,201561817,2/1/2017,Marsh Establishment,1640,0.16,800,0.146,0.306,20,NA,650,35,7.5,1
22850,2012,Camp Maria Retreat Center,41290 Camp Maria Road ,-76.6475,38.25638889,St. Mary's,Leonardtown,MD,20650,12-WL-0211,201161352,4/12/2012,Marsh Establishment,720,0.086,305,0.08,0.166,27,NA,305,90,18.5,1
22892,2013,The Trustees of the Peninsula-Delaware Conference of the United Methodist Church,136 Bookers Wharf Road ,-76.06861111,39.13583333,Queen Anne's,Centreville,MD,21617,13-GL-0077,201360128,3/27/2013,Marsh Establishment,360,0.06,265,0.06,0.12,25,NA,275,35,11,1
36777,2018,"Clara Schnoor Property, Ta-31",10209 Unionville Rd ,-76.12722222,38.82444444,Talbot,Easton,MD,21601,18-GL-0529,201860877,8/9/2018,Marsh Establishment,100,0.021,185,0.038,0.059,16,1,165,30,16,2
64445,2018,Robert Donaldson,39185 Donaldson Creek ,-76.71888889,38.28611111,St. Mary's,Avenue,MD,20609,18-GL-0444,201860731,6/11/2018,Marsh Establishment,150,0.0459,100,0.0459,0.092,20,NA,NA,NA,NA,NA
64547,2021,Michael Corrigan,16215 Osprey Cove Ln ,-76.361133,38.113117,St. Mary's,Ridge,MD,20680,21-GL-0657,202160915,2/7/2023,Marsh Establishment,27,0.004,18,0.004,0.008,20,NA,NA,NA,NA,NA
64758,2010,BA DEPRM/Essex Skypark,1409 Diffendall Rd ,-76.43805556,39.26611111,Baltimore,Essex,MD,21221,10-WL-0805,201060550,2/25/2011,Marsh Establishment,3565,1.12,2610,0.71,1.83,33,NA,NA,NA,NA,NA
64985,2019,Virginia McHugh,"10950 Dreamland Pl, And Acker Rd",-76.92055556,38.31638889,Charles,Newburg,MD,20664,19-GL-0845,201961375,12/13/2019,Marsh Establishment,450,0.086,450,0.086,0.172,20,NA,NA,NA,NA,NA
65165,2015,Timothy Evans,16490 Ball Point Rd ,-76.47416667,38.12,St. Mary's,Piney Point,MD,20674,15-GL-1030,201561825,5/16/2016,Marsh Establishment,60,0.032,115,0.021,0.053,20,NA,115,30,6,1
65749,2007,DR MARK WHITEN,41575 Knight Rd ,-76.6369445,38.275,St. Mary's,Leonardtown,MD,20650,07-GL-0293(R2),200665913,5/20/2011,Marsh Establishment,30,0.026,150,0.026,0.052,15,NA,NA,NA,NA,NA
65964,2020,Jennifer Shannahan,4799 Judiths Garden Rd ,-76.116157,38.678027,Talbot,Oxford,MD,21654,20-GL-0917,202061373,11/19/2020,Marsh Establishment,300,0.0543,240,0.0662,0.1205,22,0.5,195,35,13,1
66043,2012,Angel Enterprises Limited Partnership,7751 Rollyston Dr ,-76.18666667,38.76638889,Talbot,Saint Michaels,MD,21663,12-GL-0091,201161143,2/8/2012,Marsh Establishment,0,0.012,77,0.012,0.024,13,NA,NA,NA,NA,NA
68695,2012,Thomas DeVito Jr-PAF 10-2066,16099 Cobb Island Road ,-76.85583333,38.26888889,Charles,Newburg,MD,20664,12-WL-0939,201260797,11/7/2012,Marsh Establishment,352,0.05,435,0.099,0.149,15,NA,475,35,10,1
68832,2012,William Fowler,38800 Chasko Road ,-76.73527778,38.25694444,St. Mary's,Abell,MD,20606,12-GL-0774,201260536,4/24/2012,Marsh Establishment,100,0.02,72,0.02,0.04,25,NA,NA,NA,NA,NA
69101,2012,Phillip Geyelin,8631 North Bend Rd ,-76.12583333,38.78361111,Talbot,Easton,MD,21601,12-GL-0906,201260747,6/25/2012,Marsh Establishment,20,0.0088,77,0.0124,0.0212,20,NA,77,20,7.5,1
69160,2011,Edwin Lewis,4125 & 4135 Vienna-Elliott Island Rd ,-75.84083333,38.44638889,Dorchester,Vienna,MD,NA,11-WL-0304,201061504,4/4/2011,Marsh Establishment,0,0,275,0.095,0.095,15,NA,NA,NA,NA,NA
69178,2018,Shawn Wathen,20498 Riverview Dr ,-76.74444444,38.23194444,St. Mary's,Coltons Point,MD,20626,18-WL-0561,201860923,3/18/2020,Marsh Establishment,110,0.119,387,0.086,0.205,50,2,387,70,20,2
69323,2021,John Danly & Holly Thompson,27318 Baileys Neck Rd ,-76.132876,38.723774,Talbot,Easton,MD,21601,21-GL-1327,202161905,1/28/2022,Marsh Establishment,270,0.0482,200,0.0482,0.0964,30,1,200,60,30,1
69472,2019,Charles Isaacs,2501 Carrollton Rd ,-76.46472222,38.94805556,Anne Arundel,Annapolis,MD,21401,19-GL-0727(R1),201961155,3/8/2021,Marsh Establishment,300,0.045,240,0.045,0.091,24,1,240,35,12,1
69515,2010,"Suniewick, Russell/revetment, Pier  And","48868 Curleys Rd, Ridge Md 20680 ",-76.38666667,38.10583331,St. Mary's,Ridge,MD,NA,10-GL-0247,200962797,4/20/2010,Marsh Establishment,70,0.0095,42,0.0095,0.019,20,NA,NA,NA,NA,NA
69523,2021,Kenneth Malm,1136 Cheston Ln ,-76.165035,38.908877,Queen Anne's,Queenstown,MD,21658,21-GL-0932,202161330,10/21/2021,Marsh Establishment,138,0,310,0.1139,0.1139,16,NA,310,15,10,1
69682,2014,Michael Hagan,6423 Swan Creek Rd ,-76.26472222,39.15361111,Kent,Rock Hall,MD,21661,14-GL-0032,201460050,4/30/2014,Marsh Establishment,355,0.094,265,0.042,0.136,26.5,NA,245,35,8.5,1
69774,2018,CA Bd of County Commissioners - Flag Ponds Nature Park,"End Of Long Beach Rd, End Of Long Beach Rd",-76.46444444,38.45777778,Calvert,Saint Leonard,MD,20685,18-WL-0613,201861020,10/22/2018,Marsh Establishment,2007,0.59,392,0,0.59,82,NA,NA,NA,NA,NA
69830,2018,"Hugh Wilde, Jr",Saddle Creek Dr-Lot 3 ,-75.17861111,38.29666667,Worcester,Berlin,MD,21811,18-GL-0891,201861472,10/9/2018,Marsh Establishment,168,0.015,160,0.015,0.03,8,1,200,18,10,2
69903,2016,Steve and Marie Welling And Michael and Debra McCurdy,"21065 Breton Beach Ct And , 21075 Brenton Beach Ct",-76.67638889,38.24777778,St. Mary's,Leonardtown,MD,20650,16-GL-1123(R2),201662018,11/5/2019,Marsh Establishment,6.5,0.013,75,0.013,0.026,15,1.5,75,23,8,1
69936,2013,Swan Point Development Co LLC,Swan Point Road ,-76.91666667,38.29166667,Charles,Issue,MD,20645,13-WL-0704,201361255,3/27/2015,Marsh Establishment,4128,1.331,4750,1.331,2.662,39,NA,4750,47,23,2
69995,2012,Bill Stiles,50160 Townley Point Way ,-76.34084808,38.12828269,St. Mary's,Dameron,MD,20628,12-GL-0665,201260323,3/27/2012,Marsh Establishment,245,0.094,460,0.094,0.188,20,NA,NA,NA,NA,NA
70105,2014,Cloverlea Boat Club,1663 Cliff Drive ,-76.51388889,38.88027778,Anne Arundel,Mayo,MD,21106,14-GL-0925,201461679,12/22/2014,Marsh Establishment,800,0.094,490,0.134,0.228,20,NA,385,177.5,60.5,6
70305,2009,Us Navy/patuxent River Nas/revetment  And,"Chesapeake Basin, Pax River Nas ",-76.38305556,38.28916667,St. Mary's,Patuxent River,MD,20670,09-WL-0819,200960694,11/24/2014,Marsh Establishment,11219,1.77,1295,0.176,1.95,140,NA,485,36,22,1
70308,2010,John Taylor,49750 Diamond Ln ,-76.35138889,38.14083333,St. Mary's,Dameron,MD,20628,10-GL-0151,200962290,8/31/2017,Marsh Establishment,180,0.019,170,0.024,0.043,15,NA,449,36,11,2
70349,2015,Trollhaven Homeowners Association Inc,"Community Rec Area, Trollhaven Lane ",-76.505767,38.99919,Anne Arundel,Annapolis,MD,21401,15-GL-0738,201561282,10/26/2015,Marsh Establishment,6.5,0,82,0.0098,0.0098,5.21,NA,64,92,24,4
70375,2023,Luis Velazquez,12867 Mccready Rd ,-76.466373,38.354865,Calvert,Lusby,MD,20657,23-GL-0089,202360150,4/24/2023,Marsh Establishment,62,0.0077,45,0.0077,0.015,15,1,62,21,6,1
70398,2015,Brian and Ruth Moretz,5033 Russell Road ,-76.18138889,38.52555556,Dorchester,Woolford,MD,21677,15-GL-0858,201561489,11/25/2015,Marsh Establishment,20,0.004,22,0.004,0.008,14,NA,17,10,10,1
70428,2021,Jon Weingart,5329 Ragged Pt Rd ,-76.268947,38.554028,Dorchester,Cambridge,MD,21613,21-GL-1332,202161911,3/7/2022,Marsh Establishment,322,0.072,290,0.062,0.134,21,0.5,270,35,8,1
70515,2011,William Flynn,16363 Ball Point Road ,-76.46916667,38.1175,St. Mary's,Piney Point,MD,20674,11-GL-0839,201160797,8/16/2011,Marsh Establishment,165,0.065,380,0.065,0.13,15,NA,380,20,6,1
70555,2010,Craig Hawkes,1417 Calvert Rd ,-76.26111111,38.93222222,Queen Anne's,Chester,MD,21619,10-GL-0772,201060507,9/17/2010,Marsh Establishment,NA,0.022,120,0.022,0.044,15,NA,NA,NA,NA,NA
70574,2006,Miles Point Property Llc/marsh Creation,24679 Yacht Club Road ,-76.21861108,38.79611108,,St. Michaels,MD,NA,06-WL-0194(R1),200565333,12/5/2011,Marsh Establishment,1200,0.7,1755,0.71,1.41,35,NA,1610,40,17,1
70651,2011,David Horner III,26107 Goose Neck Rd ,-76.17222222,38.71166667,Talbot,Royal Oak,MD,21662,11-GL-0661,201160503,8/4/2011,Marsh Establishment,25,0,25,0.0156,0.0156,27,NA,130,6,6,1
70673,2019,Kates Point Farm LLC,31450 Kates Point Rd ,-75.98222222,38.63972222,Talbot,Trappe,MD,21673,19-GL-0830,201961346,9/16/2019,Marsh Establishment,325,0.057,495,0.086,0.143,31,2,495,50,23,2
70737,2012,Elselore Pretzler,9699 Fairview Point Lane ,-76.19777778,38.80555556,Talbot,Easton,MD,21601,12-GL-1417,201261667,2/7/2013,Marsh Establishment,87,0.0428,225,0.0115,0.0543,15,NA,NA,NA,NA,NA
70746,2014,Michael Abidin,1346 East West Shady Side Rd ,-76.51833333,38.85,Anne Arundel,Shady Side,MD,20764,14-GL-0295,201460522,7/31/2014,Marsh Establishment,45,0.038,130,0.03,0.068,23,NA,130,35,12,1
70786,2021,John & Christine Murray,28110 Legates Cove Rd ,-76.10095,38.742971,Talbot,Easton,MD,21601,21-GL-0263,202160319,10/5/2021,Marsh Establishment,25,0.029,107,0.013,0.042,15,1,65,14,8,1
70814,2019,Todd Jones,6064 Shipyard Ln ,-76.141342,38.716417,Talbot,Easton,MD,21601,19-GL-1289(R1),201962158,3/5/2021,Marsh Establishment,352,0.003,50,0.005,0.008,17,0.5,40,18,7,1
70893,2014,BC DOP-Piers 3 and 4,501 East Pratt Street ,-76.60777778,39.28555556,Baltimore City,Baltimore,MD,21202,14-WL-0132,201460268,7/15/2014,Marsh Establishment,0,0,20,0.0046,0.0046,10,NA,NA,NA,NA,NA
70940,2021,Sharon Geldert,5775 Pecks Point Rd ,-76.158762,38.707683,Talbot,Easton,MD,21601,21-GL-1104,202161600,1/24/2022,Marsh Establishment,50,0,270,0.062,0.062,10,0.5,270,16,6,1
71037,2018,Scott Cranston,12225 Greenridge Lane Rd ,-75.13,38.33555556,Worcester,Ocean City,MD,21842,18-GL-0367,201860618,5/21/2018,Marsh Establishment,45,0,110,0.025,0.025,10,0.6,126,15,5,1
71067,2018,Joseph Sean Callahan,4475 Evergreen Road ,-76.14638889,38.66861111,Talbot,Oxford,MD,21654,18-WL-0702 (R1),201861176,11/2/2020,Marsh Establishment,28,0.0127,59,0.0101,0.0229,18,1.5,80,23,13,1
71160,2014,Summertime LLC,900 Stagwell Rd ,-76.16194444,38.92,Queen Anne's,Queenstown,MD,21658,14-WL-0212,201460391,11/10/2014,Marsh Establishment,1412,0.129,1530,0.3492,0.5619,25,NA,1530,35,10.7,1
71194,2020,Hye and Glendon Daigle,16150 Cedar Ln ,-76.83833333,38.26861111,Charles,Newburg,MD,20664,20-GL-0020,202060018,3/25/2020,Marsh Establishment,22,0.013,78,0.013,0.026,15,1,108,29,10,1
71348,2022,Jane Murphy,4458 World Farm Rd ,-76.136793,38.671396,Talbot,Oxford,MD,21654,22-GL-0872,202261372,9/6/2022,Marsh Establishment,87,0.0269,152,0.0269,0.0538,16,1,152,24,8,1
71393,2009,"Sinclair, Richard  And  Linda/revetment",12633 Quay Rd ,-75.11361111,38.35527775,Worcester,Ocean City,MD,NA,09-GL-0774,200960521,6/8/2010,Marsh Creation,20,NA,220,NA,NA,6,NA,NA,NA,NA,NA
71393,2016,Richard and Linda Sinclair,12633 Quay Road ,-75.11361111,38.35472222,Worcester,West Ocean City,MD,21842,16-GL-0114,201660203,3/16/2016,Marsh Establishment,80,0,100,0.0413,0.0413,15,NA,180,20,5,1
71496,2012,Tom and Jane George,1723 Oakley Place ,-76.43972222,39.01055556,Anne Arundel,Annapolis,MD,21401,12-GL-0655,201260292,5/17/2012,Marsh Establishment,120,0.02,125,0.02,0.08,25,NA,NA,NA,NA,NA
71516,2009,Ca Comm/cage Farm/wetland Creation,"3055 Cage Rd, St. Leonard Md 20685 ",-76.53083331,38.41333336,Calvert,Saint Leonard,MD,NA,09-GL-0768 (R1),200960481,9/18/2012,Marsh Establishment,51,0.019,420,0.019,0.038,4,NA,NA,NA,NA,NA
71548,2020,MD DNR - Cooperative Oxford Lab,904 S Morris St ,-76.17277778,38.67888889,Talbot,Oxford,MD,21654,20-GL-0065,202060106,2/6/2020,Marsh Establishment,15,0.0184,60,0.0028,0.0214,25,1,35,22,14,1
71565,2010,"Rasmussen, Sten & Damgaard, Kirsten",26570 Oxford Rd ,-76.15916667,38.69138889,Talbot,Oxford,MD,21654,10-GL-0546,201060108,4/5/2010,Marsh Creation,196,NA,264,NA,NA,25,NA,NA,NA,NA,NA
71718,2014,Mary Kay Powell,7846 Bozman Neavitt Rd ,-76.28666667,38.76972222,Talbot,Bozman,MD,21612,14-GL-0428,201460777,9/10/2014,Marsh Establishment,240,0,432,0.131,0.131,21,NA,375,27,6,1
71774,2014,Wilson Davis,7487 River Road ,-75.74305556,38.09,Somerset,Westover,MD,21871,14-GL-0102,201460190,4/24/2014,Marsh Establishment,37.22,0,134,0.015,0.015,10,NA,NA,NA,NA,NA
71780,2021,Kenny & Edna Wentworth,45035 Smith Nursery Rd ,-76.516483,38.352253,St. Mary's,Hollywood,MD,20636,21-GL-1269,202161839,1/4/2022,Marsh Establishment,20,0.005,30,0.005,0.01,15,1,30,21,6,1
71798,2018,"Charles Bohn, Jr",7881 Fort Stokes Ln ,-76.10583333,38.76444444,Talbot,Easton,MD,21601,18-GL-0646,201861068,8/27/2018,Marsh Establishment,20,0.005,70,0.016,0.021,10,0.4,70,14,4,1
71840,2016,"Meyerhoff, Jack/dredging, Stone Sill,",8788 Marengo Farm Rd ,-76.18722222,38.79055556,Talbot,Easton,MD,21601,16-WL-0954,201661677,6/1/2017,Marsh Establishment,50,0,40,0.0206,0.0206,23.6,NA,45,32,11,1
71858,2015,MD DNR-St Clements Island State Park,St Clements Island State Park ,-76.74416667,38.20833333,St. Mary's,Coltons Point,MD,20626,15-WL-0471,201560843,10/7/2015,Marsh Establishment,132,0.047,345,0.012,0.059,20,NA,345,30,20,1
71937,2018,Town of Indian Head/Living Shoreline,Riverwatch Dr ,-77.15861111,38.60583333,Charles,Indian Head,MD,20640,18-WL-0207,201860369,6/12/2019,Marsh Establishment,2200,0.4,1280,0.37,0.77,30,1.2,1280,47,19.2,1
71960,2009,Md Dnr/north Point State Park/revetment,Bay Shore Pier: North Point State Park ,-76.42444444,39.20527781,Baltimore,Edgemere,MD,NA,09-WL-0753,200960386,5/13/2010,Marsh Creation,550,NA,365,NA,NA,43,NA,NA,NA,NA,NA
71989,2020,Mary Christ-Erwin and Brad Pitt,127 Island View Rd ,-76.55666667,38.95722222,Anne Arundel,Annapolis,MD,21401,20-GL-1070,202061583,1/6/2021,Marsh Creation,95,NA,63,NA,NA,16,1,65,16,10,1
72191,2013,Olde Severna Park Improvement Association,220 Holly Drive ,-76.54972222,39.0675,Anne Arundel,Severna Park,MD,21146,13-WL-0330,201360588,11/20/2014,Marsh Establishment,100,0.043,100,0.043,0.087,35,NA,NA,NA,NA,NA
72280,2012,Nathan and Jill Daschle,1405 Sharps Point Road ,-76.43833333,38.99611111,Anne Arundel,Annapolis,MD,21409,12-WL-1464(R1),201261765,3/16/2015,Marsh Establishment,512,0.05,187,0.1,0.15,30,NA,245,192,32,4
72328,2012,Bernard Korman,5785 Hopkins Neck Rd ,-76.16194444,38.70611111,Talbot,Easton,MD,21601,12-GL-0785,201260554,6/29/2012,Marsh Establishment,524,0.0851,337,0.0619,0.147,19,NA,360,35,14,1
72390,2012,Harry C Kelly,3428 Rockway Ave ,-76.4675,38.92138889,Anne Arundel,Annapolis,MD,21403,12-GL-0143,201161235,10/4/2011,Marsh Establishment,66,0.011,100,0.023,0.034,15,NA,114,24,9,1
72441,2014,Dennis and Jane McAuliffe,16601 St Jeromes Neck Road ,-76.33722222,38.12305556,St. Mary's,Dameron,MD,20628,14-GL-0204,201460392,5/28/2014,Marsh Establishment,56,0.007,40,0.007,0.014,15,NA,40,25,10,1
72949,2020,Pamela Harmon,36220 Bashford Ln ,-76.825653,38.34795,St. Mary's,Chaptico,MD,20621,20-GL-1424,202061977,11/10/2021,Marsh Establishment,140,0.15,494,0.15,0.3,26,1,494,35,9,1
73051,2014,Harry (Buddy) Reed,10092 Third Point Road ,-76.20055556,39.255,Kent,Chestertown,MD,21620,14-GL-0822,201461498,11/12/2017,Marsh Establishment,160,0.0429,200,0.0214,0.0643,22,NA,179,26,6,1
73083,2010,Columbia Venture Realty LLC/Watergate Village,Americana Dr ,-76.48166667,38.96527778,Anne Arundel,Annapolis,MD,21403,10-GL-0652,201060305,9/7/2010,Marsh Creation,385,NA,160,NA,NA,35,NA,NA,NA,NA,NA
73160,2021,Mark & Joan Siegel,30360 Cods Point Rd ,-76.025756,38.59646,Talbot,Trappe,MD,21673,21-GL-1193,202161724,11/16/2021,Marsh Establishment,254,0.079,355,0.079,0.158,20,0.5,325,30,10,1
73434,2012,Leon Irish,304 Kyle Road ,-76.56111111,39.05361111,Anne Arundel,Crownsville,MD,21032,12-GL-0993,201260889,6/27/2012,Marsh Establishment,250,0.05,209,0.05,0.1,35,NA,NA,NA,NA,NA
73434,2017,"Wilshire, LLC",304 Kyle Road ,-76.56083333,39.05388889,Anne Arundel,Crownsville,MD,21032,17-GL-0145,201760221,8/1/2017,Marsh Establishment,337,0.07,170,0.07,0.14,35,NA,NA,NA,NA,NA
73564,2018,Dave Schilling,205 Cornfield Road ,-76.44555556,39.09916667,Anne Arundel,Pasadena,MD,21122,18-GL-0691,201861167,11/20/2018,Marsh Establishment,215,0.0333,170,0.0333,0.0666,25,2,120,35,12,1
73618,2019,CA Comm - Breezy Point Park,5300 Breezy Point Rd ,-76.51361111,38.61833333,Calvert,Chesapeake Beach,MD,20732,19-WL-1329,201961791,7/2/2020,Marsh Establishment,27300,1.42,1400,0,1.42,44,NA,NA,NA,NA,NA
73653,2012,Laurance and Annabelle Redway,4733 Sailors Retreat Ct ,-76.10888889,38.67805556,Talbot,Oxford,MD,21654,12-GL-0270,201161461,12/16/2011,Marsh Establishment,51,0.044,340,0.063,0.1,20,NA,340,27,7,1
73682,2009,"Walzer, Clifford/living Shoreline","1314 Beachview Road, Annapolis Md ",-76.48111108,38.91999997,Anne Arundel,Annapolis,MD,NA,09-GL-0671(R1),200960059,2/10/2011,Marsh Establishment,270,0.16,352,0.1,0.06,70,NA,240,35,14.5,1
73722,2021,Jon Vos,"Porters Hill Rd, Parcel 630 ",-76.519672,39.010322,Anne Arundel,Annapolis,MD,21401,21-WL-0084,202160117,5/12/2022,Marsh Establishment,500,0.175,650,0.197,0.84,50,2,666,70,20,2
73793,2009,Wo Dpw/taylor Landing/revetment  And  Piers,"Taylor Landing Boat Ramp, Girdeltree Md ",-75.36416664,38.07666664,,Girdeltree,MD,NA,09-WL-0664,200960048,2/25/2011,Marsh Establishment,122,0,162,0.032,0.032,20,NA,NA,NA,NA,NA
73793,2013,WO DPW-Taylor Landing,Taylor Landing Boat Ramp ,-75.36444444,38.07666667,Worcester,Girdletree,MD,21829,13-WL-0575,201361022,1/27/2014,Marsh Establishment,150,0,162,0.0372,0.0372,10,NA,162,21,16,1
73835,2022,Corinthian Yacht Club ,48555 Bean Road ,-76.397019,38.117055,St. Mary's,Ridge,MD,20680,22-GL-0279,202260463,5/9/2022,Marsh Establishment,335,0.046,403,0.16,0.21,22,1.5,403,30,10,1
73857,2020,Gail Heffer,488 Royal Beach Rd ,-76.53583333,39.105,Anne Arundel,Pasadena,MD,21122,20-GL-0034,202060061,7/20/2020,Marsh Establishment,85,0.008,50,0.008,0.016,14,0.5,50,20,6,1
73891,2018,Marshall Rutland IV and Sara Arthur,130 Riverview Ave ,-76.50694444,38.99861111,Anne Arundel,Annapolis,MD,21401,18-WL-0341,201860594,8/5/2019,Marsh Establishment,200,0.014,111,0.055,0.069,27,0.5,160,110,10,1
73975,2015,QA Parks-Conquest Wildlife Preserve,708 Conquest Road ,-76.12527778,39.09666667,Queen Anne's,Centreville,MD,21617,15-WL-0511,201560910,3/9/2016,Marsh Establishment,2935,0.38,1035,0,0.38,20,NA,1420,160,77.5,2
74057,2015,Gibson Island Corporation-Causeway,Gibson Island Causeway ,-76.422666,39.084446,Anne Arundel,Gibson Island,MD,21056,15-GL-0505,201560903,7/24/2015,Marsh Establishment,13.85,0.0043,25,0.0017,0.0061,10,NA,NA,NA,NA,NA
74710,2014,John and Karen Kaufmann,18046 Shipping Point Rd ,-76.43194444,38.16277778,St. Mary's,Lexington Park,MD,20653,14-GL-0630,201461105,9/30/2014,Marsh Establishment,26,0.0079,46,0.0079,0.0158,15,NA,46,23,8,1
74724,2020,Bernie and Kathy Owens,39015 Van Ward Rd ,-76.73083333,38.25166667,St. Mary's,Abell,MD,20606,20-GL-0357,202060567,6/11/2020,Marsh Establishment,200,0.091,413,0.091,0.182,25,1,413,35,10,1
74771,2019,Robert Malesardi,5936 Trippe Creek Dr ,-76.09666667,38.71222222,Talbot,Oxford,MD,21654,19-GL-0552,201960848,7/15/2019,Marsh Establishment,400,0.057,350,0.069,0.126,28,0.5,295,35,13,1
74798,2020,Ronald Medford,17747 Clarke Rd ,-76.51027778,38.15555556,St. Mary's,Tall Timbers,MD,20690,20-GL-0095,202060143,4/17/2020,Marsh Establishment,42,0.009,50,0.009,0.018,15,2,120,31,12,2
74812,2010,Helen Witt,25511 Bruffs Island Road; Easton ,-76.19055556,38.85777778,Talbot,Easton,MD,NA,10-WL-1053,201060912,11/18/2010,Marsh Establishment,NA,0.043,150,0.043,0.086,35,NA,NA,NA,NA,NA
74937,2015,Chesapeake Marshlands NWR-Eastern Neck NWR,1730 Eastern Neck Road ,-76.20416667,39.01888889,Kent,Rock Hall,MD,21661,15-WL-0950,201561662,5/2/2016,Marsh Establishment,6636,0,1,1.19,1.19,54,NA,NA,NA,NA,NA
74937,2016,Chesapeake Marshlands NWR-Eastern Neck NWR,1730 Eastern Neck Road ,-76.20416667,39.01888889,Kent,Rock Hall,MD,21661,16-GL-0043,201660082,4/15/2016,Marsh Establishment,36,0.008,180,0,0.008,2,NA,NA,NA,NA,NA
74960,2022,Bruce Moore,33660 Fox Rd ,-75.904852,38.8168,Talbot,Easton,MD,21601,22-GL-1216,202261914,2/10/2023,Marsh Establishment,99,0.0104,122,0.0267,0.0371,20,-0.2,112,30,10,1
75037,2009,Jerry Marsh and Robert Elwood,"3274, 3276 & 3280 Harness Creek Rd ",-76.51583336,38.93749997,Anne Arundel,Annapolis,MD,21403,09-WL-0613(R2),200865194,11/4/2009,Marsh Establishment,25,0,105,0.03,0.03,19,NA,NA,NA,NA,NA
75156,2023,Mark Bowes,18275 Harborview Ln ,-76.507253,38.167243,St. Mary's,Valley Lee,MD,20692,23-GL-0380,202360606,6/12/2023,Marsh Establishment,160,0.034,200,0.034,0.068,15,1,200,25,9,1
75244,2013,Owen Wormser,25911 Goose Neck Road ,-76.18,38.71527778,Talbot,Royal Oak,MD,21662,13-GL-0928,201361674,11/6/2013,Marsh Establishment,100,0.027,235,0.027,0.054,20.5,NA,235,40,12,2
75363,2019,Yair Argon,110 Edge Knoll Lane ,-76.15888889,38.96388889,Queen Anne's,Queenstown,MD,21658,19-GL-0305,201960435,5/22/2019,Marsh Establishment,240,0.0459,215,0.0459,0.0918,30,NA,NA,NA,NA,NA
75450,2022,Lovely Lane LLC,23612 Lovely Lane ,-76.149897,39.144577,Kent,Chestertown,MD,21620,22-GL-1238,202261951,3/13/2023,Marsh Establishment,170,0.0257,118,0.0185,0.0442,15,2,418,43,12,2
75543,2021,Bob Peitrangelo,330 Serenity Ln ,-76.288966,38.943756,Queen Anne's,Chester,MD,21619,21-GL-0902,202161280,1/31/2022,Marsh Establishment,740,0.0884,385,0.0442,0.1326,26,2.4,385,33,7,1
75705,2014,Thomas Liberatore,1211 Dixona Drive ,-76.50333333,38.89777778,Anne Arundel,Edgewater,MD,21037,14-GL-0470,201460848,8/6/2014,Marsh Establishment,60,0.0121,145,0.0121,0.0243,24,NA,137,50,14,3
75870,2020,Town Of Ocean City/northside Park,200 125th St ,-75.06194444,38.4325,Worcester,Ocean City,MD,21842,20-GP-1120,202061675,1/19/2021,Marsh Creation,100,NA,100,NA,NA,33,NA,NA,NA,NA,NA
75881,2019,Delmarva RC&D Inc,Mouth Of Hurst Creek ,-76.025023,38.565726,Dorchester,Linkwood,MD,21613,19-WL-0355,201960505,6/25/2020,Marsh Establishment,1100,1.84,1200,0.46,2.3,80,NA,NA,NA,NA,NA
75968,2019,Joseph Timakov,1710 Hoopersville Rd ,-76.17666667,38.25555556,Dorchester,Fishing Creek,MD,21634,19-GL-0201,201960276,4/1/2019,Marsh Establishment,110,0.0321,80,0.0321,0.0642,22,1,58,35,13,1
76006,2018,Buckley Hayes,121 Carroll Drive ,-76.500753,38.931338,Anne Arundel,Annapolis,MD,21403,18-GL-0209,201860365,5/3/2018,Marsh Establishment,57,0.01,55,0.01,0.02,15,1,90,20,3,1
76187,2010,Ronald and Sally Henninger,23838 Grace Creek Rd ,-76.25305556,38.75166667,Talbot,Bozman,MD,21612,10-GL-1018,201060843,9/23/2010,Marsh Establishment,NA,0.044,320,0.0514,0.0954,36,NA,NA,NA,NA,NA
76206,2016,Matthew McCormack,3428 Constellation Dr ,-76.597327,38.963783,Anne Arundel,Davidsonville,MD,21035,16-GL-0869,201661530,3/13/2017,Marsh Establishment,328,0.073,390,0.073,0.145,24,NA,443,35,11,1
76229,2017,Rodney and Linda Spring,26557 Bayfield Ln ,-76.15333333,38.70694444,Talbot,Easton,MD,21601,17-GL-1203,201762171,1/8/2018,Marsh Establishment,200,0.0027,68,0.021,0.0237,27,NA,100,33,11,1
76241,2015,River Run Development LLC,11605 Masters Lane ,-75.17583333,38.40388889,Worcester,Ocean Pines,MD,21811,15-WL-0533,201560946,10/13/2015,Marsh Establishment,50,0,250,0.1148,0.1148,10,NA,NA,NA,NA,NA
76241,2019,River Run Development LLC,11605 Masters Lane ,-75.17583333,38.40361111,Worcester,Ocean Pines,MD,21811,19-WL-0631,201960993,7/25/2019,Marsh Establishment,50,0,250,0.115,0.115,10,NA,NA,NA,NA,NA
76465,2011,H Brian Thompson,"26357 Miles River Road,  ",-76.16472222,38.78305556,Talbot,Easton,MD,21601,11-GL-0638,201160463,6/23/2011,Marsh Establishment,205,0.0424,205,0.0424,0.0848,20,NA,240,35,14,1
76627,2013,Christopher Nassetta,4793 Bayfields Rd ,-76.53861111,38.84861111,Anne Arundel,Harwood,MD,20776,13-GL-0859,201361550,12/6/2013,Marsh Establishment,25,0,75,0.026,0.026,15,NA,75,30,10,1
76627,2020,Christopher Nassetta,4793 Bayfields Rd ,-76.537915,38.848186,Anne Arundel,Harwood,MD,20776,20-GL-1022,202061521,11/9/2020,Marsh Establishment,25,0,75,0.026,0.026,20,2,75,30,10,1
76718,2016,1553 Baywood Lane LLC,1553 Baywood Lane ,-76.45,39.09611111,Anne Arundel,Pasadena,MD,21122,16-WL-0723,201661268,3/13/2017,Marsh Establishment,730,0.11,1800,0.12,0.23,1000,NA,115,35,15,1
76860,2014,Washington College,106 South Water Street ,-76.06388889,39.20666667,Kent,Chestertown,MD,21620,14-GL-0489,201460881,9/3/2014,Marsh Establishment,66,0.043,200,0.097,0.14,35,NA,NA,NA,NA,NA
76963,2020,Anthony and Erica Capobianco,45460 Steer Horn Neck Rd ,-76.501697,38.356604,St. Mary's,Hollywood,MD,20636,20-WL-0231 (R1),202060381,7/5/2022,Marsh Establishment,28,0.012,53,0,0.012,10,1,53,16,6,1
76988,2011,Larrimore Trust,1555 Widows Mite Rd ,-76.53527778,38.93611111,Anne Arundel,Edgewater,MD,21037,11-GL-0157,201061237,4/20/2011,Marsh Establishment,195,0.028,110,0.012,0.04,15.9,NA,NA,NA,NA,NA
76988,2017,"Thayer Larrimore, Trustee",1555 Widows Mite Rd ,-76.53527778,38.93611111,Anne Arundel,Edgewater,MD,21037,17-GL-0665,201761166,9/13/2017,Marsh Establishment,26,0,107,0.02,0.02,17.5,NA,144,35,10.2,1
76988,2021,John Flood,1555 Widows Mite Rd ,-76.53533,38.93623,Anne Arundel,Edgewater,MD,21037,21-GL-1155,202161667,1/26/2022,Marsh Establishment,26,0.01,102.5,0.02,0.02,10,6,288,70,23,2
76990,2013,Alan and Stacy Lancaster,2754 Bon Haven Lane ,-76.59611111,38.96861111,Anne Arundel,Annapolis,MD,21401,13-GL-0786,201361388,12/4/2013,Marsh Establishment,15,7.00E-04,23,0.003,0.0051,12,NA,NA,NA,NA,NA
77014,2023,"Raymond Gall, Jr",4002 Tudor Hall Rd ,-76.574392,38.949271,Anne Arundel,Riva,MD,21140,23-GL-0424,202360672,9/29/2023,Marsh Establishment,120,0.0085,105,0.0095,0.018,14,2,77,56,26,2
77111,2013,Steven Bozzonetti,502 Beaumont Court ,-75.13972222,38.37111111,Worcester,Ocean Pines,MD,21811,13-GL-0502,201360912,8/6/2013,Marsh Establishment,123,0,110,0.0689,0.0689,55,NA,110,70,10,2
77149,2018,Mary Ann Norris,501 Palisades Blvd. ,-76.57027778,39.03583333,Anne Arundel,Crownsville,MD,21032,18-GL-1012,201861690,2/27/2019,Marsh Establishment,75,0,50,0.006,0.006,10,2,245,70,22,2
77371,2013,Rusty and Mindy Palmer,11726 Riverview Drive ,-75.16972222,38.40527778,Worcester,Berlin,MD,21811,13-GL-0546,201360957,8/5/2013,Marsh Establishment,33,0,85,0.039,0.039,20,NA,85,26,6,1
77513,2013,Christopher Brown,26612 Willows Lane ,-76.15305556,38.77833333,Talbot,Easton,MD,21601,13-GL-0035,201360059,3/7/2013,Marsh Establishment,50,0,310,0.0918,0.0918,30,NA,310,33,6,1
77781,2009,"Rice, Howard/bulkhead",14524 E Way Dr ,-76.33333333,38.06555553,St. Mary's,Scotland,MD,NA,09-GL-0508,200864735,8/2/2010,Marsh Establishment,160,0.031,90,0.03,0.061,30,NA,NA,NA,NA,NA
78181,2011,Md Sha/project No Aa651a23/south River,"South River Farms Park, North On Loch Haven To South ",-76.51083333,38.91944444,Anne Arundel,Edgewater,MD,NA,11-WL-0140,201061201,1/18/2011,Marsh Establishment,1788,0.12,831,0.41,0.53,35,NA,NA,NA,NA,NA
78232,2016,Dennis Suski,733 Swan Cove Lane ,-76.505,39.08361111,Anne Arundel,Pasadena,MD,21122,16-GL-0841,201661465,11/28/2016,Marsh Establishment,40,0.007,60,0.007,0.017,18,NA,50,25,7,1
78247,2016,Kathy Ortel,451 Waggamon Circle ,-76.52861111,38.94666667,Anne Arundel,Annapolis,MD,21403,16-GL-0979,201661717,5/17/2017,Marsh Establishment,198,0.056,200,0.056,0.11,24,NA,240,35,7,1
78358,2012,Joseph and Nancy Potanka,45233 Daniels Court ,-76.51111111,38.33833333,St. Mary's,Hollywood,MD,20636,12-GL-0920,201260770,7/26/2012,Marsh Establishment,20,0.0048,35,0.0048,0.0096,12,NA,35,17,5,1
78473,2020,Martin Doerfler MD,6694 Peachblossom Point Rd ,-76.122359,38.733866,Talbot,Easton,MD,21601,20-GL-1443,202062002,3/17/2021,Marsh Establishment,120,0.0533,421,0.0859,0.1392,20,NA,NA,NA,NA,NA
78540,2015,John Hand,6219 Long Point Road ,-76.27944444,38.7225,Talbot,Neavitt,MD,21652,15-GL-0361,201560664,6/22/2015,Marsh Establishment,15,0.003,45,0.003,0.006,13,NA,36.8,18,5,1
78570,2021,Dianne Flury,606a Overhill Dr ,-76.528231,38.898126,Anne Arundel,Edgewater,MD,21037,21-GL-0437,202160602,5/9/2022,Marsh Establishment,15,0,60,0.0073,0.0073,5,1,60,35,11.5,1
78637,2009,"Hutchison, Thomas/living Shoreline, Pier",Fairview Point La ,-76.17750003,38.81555558,Talbot,Easton,MD,NA,09-WL-0467(R),200864592,11/8/2010,Marsh Establishment,615,0.25,890,0.184,0.434,23,NA,NA,NA,NA,NA
78664,2011,"USFWS, Blackwater NWR/Wildlife Dr",Wildlife Dr ,-76.12194444,38.44416667,Dorchester,Cambridge,MD,21613,11-WL-0086,201061100,11/22/2010,Marsh Establishment,NA,0.008,428,0.028,0.038,8,NA,NA,NA,NA,NA
78744,2012,Gray Hawk Holdings LLC,2988 Crosiadore Lane ,-76.08444444,38.62555556,Talbot,Trappe,MD,21673,12-GL-1297,201261446,11/9/2012,Marsh Establishment,115.74,0.0363,135,0.0412,0.0775,25,NA,123,35,11,1
78817,2019,Baily Family Ltd Partnership,3606 Figgs Landing Rd ,-75.2975,38.12416667,Worcester,Snow Hill,MD,21863,19-GL-0946,201961562,10/28/2019,Marsh Establishment,89,0.041,200,0.014,0.055,12,2,200,28,10,1
78864,2018,"Brian Cass, Trustee",28181 Harleigh Lane ,-76.10277778,38.70944444,Talbot,Oxford,MD,21654,18-GL-0093,201860175,5/7/2018,Marsh Establishment,575,0,895,0.26,0.26,48,0.63,936,88,12,3
79100,2018,Deborah Robbins,"5024 Rippling Rd, Lot 11",-76.14611111,38.53055556,Dorchester,Cambridge,MD,21613,18-GL-0064,201860131,4/24/2018,Marsh Establishment,50,0.0057,40,0.008,0.0138,20,0.5,40,26,6,1
79212,2014,Twin Harbors Community Association,182 Baybourne Drive ,-76.515,39.06722222,Anne Arundel,Arnold,MD,21012,14-GL-0395,201460715,8/26/2014,Marsh Establishment,96,0.006,170,0.05,0.01,17,NA,170,23,4.5,1
79320,2012,William Wood III,220 Kirkley Road ,-76.5125,38.99194444,Anne Arundel,Annapolis,MD,21401,12-GL-0390,201161696,12/29/2011,Marsh Establishment,120,0.005,40,0,0.005,6,NA,NA,NA,NA,NA
79415,2022,Tilghman on Chesapeake Comm Assoc,Avalon Court  ,-76.333603,38.704454,Talbot,Tilghman,MD,21671,22-WL-0697,202261087,8/15/2023,Marsh Establishment,2320,0.168,465,0.033,0.201,50,0.66,782,125,29,2
79485,2019,Cathy Murphy,16940 Piney Point Rd ,-76.49555556,38.13333333,St. Mary's,Piney Point,MD,20674,19-GL-1110,201961862,12/5/2019,Marsh Establishment,188,0.039,225,0.039,0.078,15,NA,NA,NA,NA,NA
79633,2021,RDC Melanie Dr LLC,9599 Melanie Dr ,-76.236111,38.815169,Talbot,Saint Michaels,MD,21663,21-GL-1217,202161758,1/27/2022,Marsh Establishment,2350,0.027,155,0.027,0.0539,20,0.502,140,20,9,1
79672,2021,Michael & Amanda Sutton,8195 Church Neck Rd ,-76.23254,38.774558,Talbot,Saint Michaels,MD,21663,21-GL-0877,202161239,11/5/2021,Marsh Establishment,290,0.069,425,0.092,0.161,19,0.5,425,25,11,1
79748,2009,John Cryan,2032 Ferry Farms Road ,-76.47749994,38.99083336,Anne Arundel,Annapolis,MD,21403,09-WL-0406(R1),200864374,12/5/2011,Marsh Establishment,2370,0.2,405,0.1,0.367,53,NA,NA,NA,NA,NA
79765,2011,Steve and Christine Summers,834 Holly Landing Rd ,-76.55166667,38.83305556,Anne Arundel,West River,MD,20778,11-GL-0258,201061421,12/13/2010,Marsh Establishment,250,0,230,0.1,0.1,35,NA,NA,NA,NA,NA
79859,2020,West River UM Center,5100 Chalk Point Rd ,-76.54333333,38.83111111,Anne Arundel,West River,MD,20778,20-WL-0076,202060120,10/27/2020,Marsh Establishment,1456,0.16,878,0.16,0.32,15,0,1145,35,20,1
79870,2018,Loch Haven Civic Assn Inc/Beach and Breakwater,3448 S River Ter ,-76.51861111,38.92444444,Anne Arundel,Edgewater,MD,21037,18-WL-0777,201861292,6/12/2019,Marsh Establishment,300,0.08,140,0.04,0.12,36,NA,NA,NA,NA,NA
79881,2012,Londontown Property Owners Association-Beach 2,"Beach 2, Delmar Road ",-76.54361111,38.92944444,Anne Arundel,Edgewater,MD,21037,12-WL-0373,201161661,2/27/2012,Marsh Establishment,768,0.071,360,0.083,0.154,20,NA,80,46,12,1
79958,2010,"Mooney, Wayne  And  Ladonna/revetment  And  Pier",7757 East Shore Rd ,-76.54861111,39.14583336,Anne Arundel,Pasadena,MD,NA,10-GL-0209,200962586,2/16/2011,Marsh Establishment,140,0.03,180,0.02,0.05,35,NA,NA,NA,NA,NA
79973,2016,AACPS - Arlington Echo Outdoor Educational Facility,975 Indian Landing Rd ,-76.605503,39.077146,Anne Arundel,Millersville,MD,21108,16-GL-0766,201661330,1/5/2017,Marsh Establishment,256,0,110,0.0439,0.0439,20,NA,417,75,18,4
80071,2010,"Petruzzello, Michael/revetment, Groin  And",4474 Boone Creek Road ,-76.16555561,38.67166667,Talbot,Oxford,MD,NA,10-WL-0208,200962571,5/5/2011,Marsh Establishment,15,0.005,55,0.005,0.01,8,NA,839,11,4,1
80153,2013,Robet and Peggy Finnin,Pooles Gut ,-76.50638889,38.89333333,Anne Arundel,Edgewater,MD,21037,13-GL-0777,201361358,11/1/2013,Marsh Establishment,3,0,49,0.0033,0.0033,3,NA,43,40,10,2
80243,2021,Fred Dillon,8622 Tall Oaks Rd ,-76.438141,39.222145,Baltimore,Sparrows Point,MD,21219,21-GL-1316,202161894,6/7/2022,Marsh Establishment,45,0.0079,20,0.0036,0.0179,39,1,42,12,5,1
80346,2022,William & Margaret Robinson,20816 Humphreys Point Rd ,-76.253888,39.159857,Kent,Rock Hall,MD,21661,22-GL-0095,202260186,6/30/2022,Marsh Establishment,895,0.13,350,0.08,0.21,35,0.5,609,35,11.8,1
80358,2014,Sunset Landing Condo,111 58th Street ,-75.07,38.38166667,Worcester,Ocean City,MD,21842,14-GL-0084,201460169,4/25/2014,Marsh Establishment,12,0,40,0.014,0.014,20,NA,NA,NA,NA,NA
80421,2012,William Love Jr,8257 Riverside Dr ,-76.43972222,39.12027778,Anne Arundel,Pasadena,MD,21122,12-GL-0398,201161711,12/14/2011,Marsh Establishment,49,0.07,0,0.07,0.07,16.5,NA,148.5,21.5,5,1
80536,2015,Austin Hulbirt,94 Point Somerset Lane ,-76.55805556,39.06805556,Anne Arundel,Severna Park,MD,21146,15-GL-0827,201561433,12/23/2015,Marsh Establishment,508,0.078,270,0.078,0.156,30,NA,NA,NA,NA,NA
80627,2014,Sheldon Liptz,23866 New Land Drive ,-76.25138889,38.77277778,Talbot,Saint Michaels,MD,21663,14-WL-1095,201461985,7/10/2015,Marsh Establishment,61,0.028,463,0.55,0.083,7,NA,435,45,7,1
80662,2020,William McKinnon,6601 Cedar Cove Rd ,-76.23722222,38.73583333,Talbot,Royal Oak,MD,21662,20-WL-0656,202061006,11/10/2020,Marsh Establishment,300,0.0487,450,0.079,0.1277,12,2,450,44,24,2
80671,2022,Matthew & Kadion Dezee,600 Cornelius Point Rd ,-76.318783,38.927044,Queen Anne's,Stevensville,MD,21666,22-GL-1077,202261680,11/16/2022,Marsh Establishment,123,0.0643,350,0.0901,0.1544,19,0.5,350,26,8,1
80770,2019,Melvin and Kim Kiper,2925 E Cox Neck Rd ,-76.295,38.91055556,Queen Anne's,Chester,MD,21619,19-GL-0808,201961305,10/17/2019,Marsh Establishment,88,0.0152,165,0.0227,0.0379,17,1,165,23,6,1
80774,2020,Christopher Stromberg and Emily Mechner,10069 Breeden Rd ,-76.483948,38.394832,Calvert,Lusby,MD,20657,20-GL-1420,202061973,3/8/2021,Marsh Establishment,398,0.074,431,0.074,0.148,30,2,431,46,16,2
80814,2013,David Lees,"6271 Neavitt Manor Rd, Lots B And C",-76.29027778,38.7225,Talbot,Neavitt,MD,21652,13-GL-1149,201362098,3/14/2014,Marsh Establishment,272,0,480,0.075,0.075,7,NA,NA,NA,NA,NA
81170,2015,Peter Summers,632 Riverside Rd ,-76.500178,38.925564,Anne Arundel,Annapolis,MD,21403,15-GL-0504,201560898,7/21/2015,Marsh Establishment,13.85,0.0047,30,0.003,0.0077,10,NA,NA,NA,NA,NA
81261,2015,Justin Nonemaker,6855 Pea Neck Road ,-76.20027778,38.73722222,Talbot,Saint Michaels,MD,21663,15-GL-0453(R1),201560820,1/5/2017,Marsh Establishment,80,0,15,0.01,0.01,1,NA,20,57,15,2
81261,2022,Chesley & Justin Nonemaker Trustee,6855 Pea Neck Road ,-76.200834,38.737179,Talbot,Saint Michaels,MD,21663,22-GL-0440,202260697,8/5/2022,Marsh Establishment,135,0.0611,254,0.0535,0.1146,24,0.6,224,30,6.5,1
81327,2013,Mark Danielsen and Jacqueline Jonklass,50265 Hawley Manor Rd ,-76.33805556,38.1325,St. Mary's,Dameron,MD,20628,13-GL-0316,201360563,5/9/2013,Marsh Establishment,250,0.031,195,0.031,0.062,14,NA,187,21,8,1
81512,2020,Michael Burke Sr,23746 Mt. Pleasant Landing Cir ,-76.25527778,38.78666667,Talbot,Saint Michaels,MD,21663,20-GL-0657,202061007,12/15/2020,Marsh Creation,120,NA,220,NA,NA,28,1,220,28,8,1
81697,2023,Bruce Braunewell,5762 Irish Creek Dr ,-76.211282,38.708814,Talbot,Royal Oak,MD,21662,23-GL-0012,202360023,6/2/2023,Marsh Establishment,220,0.126,206,0.064,0.19,24,0,237,35,8,1
81738,2020,Franklin Manor Citizens Assoc,Franklin Manor Community Beach ,-76.5093,38.80295,Anne Arundel,Churchton,MD,20733,20-WL-0029,202060051,7/2/2020,Marsh Establishment,4281,0.841,460,0.316,1.158,109,NA,NA,NA,NA,NA
81787,2014,Judy Van Dyke,23436 Lands End Rd ,-76.16,39.12083333,Kent,Chestertown,MD,21620,14-GL-0674,201461210,9/13/2014,Marsh Establishment,95,0.0125,100,0.0129,0.0254,20,NA,100,20,9,1
81840,2012,Camp Wright Diocese of Easton,400 Camp Wright Ln ,-76.35111111,38.96055556,Queen Anne's,Stevensville,MD,21666,12-WL-0386,201161692,1/23/2012,Marsh Establishment,4000,0.0918,400,0.2525,0.3443,66,NA,NA,NA,NA,NA
81886,2021,Richard W Smith,517 Tidewater Cove ,-75.13419,38.368929,Worcester,Berlin,MD,21811,21-GL-0600,202160818,1/5/2022,Marsh Establishment,13.5,0.005,70,0.007,0.012,7,0.5,56,10,3,1
82053,2023,Mark Stadsklev,3604 Figgs Landing Rd ,-75.296981,38.123409,Worcester,Snow Hill,MD,21863,23-GL-0203,202360334,7/5/2023,Marsh Establishment,250,0.0275,200,0.0275,0.0551,18,1.67,155,25,12.5,1
82290,2017,SM Rec  And  Parks-St Inigoes Rec Area and Boat Ramp,"End Of Beachville Road,  At 46621 Beachville Rd",-76.41555556,38.11194444,St. Mary's,Saint Inigoes,MD,20684,17-WL-1136,201762067,4/16/2018,Marsh Establishment,1497,0.15,242,0.15,0.3,50,1.5,242,70,16,1
82323,2019,Tracy Coster,491 Lymington Rd ,-76.57222222,39.07111111,Anne Arundel,Severna Park,MD,21146,19-WL-0189,201960262,10/2/2019,Marsh Establishment,270,0.04,130,0.04,0.08,30,1,130,48,12,1
82330,2011,Inn At Perry Cabin Corp,308 Watkins Lane ,-76.22361111,38.79083333,Talbot,Saint Michaels,MD,NA,11-GL-0853,201160818,8/1/2011,Marsh Establishment,51,0.015,145,0.015,0.03,16,NA,145,16,6,1
82371,2012,Town Of Ocean City-Old Landing Road,Old Landing Road ,-75.06472222,38.41638889,Worcester,Ocean City,MD,21842,12-GP-1148,201261165,10/23/2015,Marsh Establishment,2.3,4.00E-04,20,0.001,0.0014,3,NA,NA,NA,NA,NA
82560,2009,"Smallwood, Scott/living Shoreline",7414 Mayport Rd ,-76.28500003,38.75333333,Talbot,Bozman,MD,NA,09-WL-0292,200863913,1/28/2011,Marsh Establishment,450,0.0794,194,0.0794,0.1588,50,NA,NA,NA,NA,NA
82624,2021,William & Susan French ,109 Pigpen Point Ct ,-76.175941,38.898111,Queen Anne's,Queenstown,MD,21658,21-GL-1422,202162099,7/15/2022,Marsh Establishment,58,0.0028,15,0.0121,0.0149,41,2,127,35,10,1
82914,2011,Jay Hoffman,1027 Long Point Rd ,-76.23055556,38.97888889,Queen Anne's,Grasonville,MD,21638,11-WL-0400,201160004,6/6/2011,Marsh Establishment,127,0.06,155,0.06,0.12,35,NA,NA,NA,NA,NA
83060,2022,"25876 Royal Oak, LLC",25876 Royal Oak Rd ,-76.179101,38.744127,Talbot,Royal Oak,MD,21662,22-GL-0441,202260698,7/15/2022,Marsh Establishment,98,0.031,200,0.031,0.062,14,0.5,200,21,7,1
83137,2009,"Crenshaw, Richard/bulkhead  And  Stone Sill",4927 Hine Dr ,-76.52833339,38.83722225,Anne Arundel,Shady Side,MD,NA,09-GL-0272(R),200863764,1/20/2010,Marsh Establishment,205,0.04,140,0.04,0.08,24,NA,NA,NA,NA,NA
83142,2014,Holmes Creek LLC,2570 Ocean Gateway ,-76.08194444,38.62222222,Talbot,Trappe,MD,21673,14-WL-0398,201460718,1/21/2015,Marsh Establishment,368,0.0603,1050,0.3013,0.3616,15,NA,1050,23,8,1
83202,2020,Scott Cavender,8004 Bloomfield Rd ,-76.12638889,38.76555556,Talbot,Easton,MD,21601,20-WL-0247,202060401,6/3/2020,Marsh Establishment,950,0.127,645,0.137,0.264,21,0.5,600,30,10,1
83238,2018,Louis Codispoti,4772 Sailors Retreat ,-76.10388889,38.68027778,Talbot,Oxford,MD,21654,18-GL-0496,201860828,7/23/2018,Marsh Establishment,220,0.022,130,0.025,0.047,24,0.2,100,33,10,1
83449,2014,Matt Kasap,4800 Westward View Rd ,-76.52777778,38.84666667,Anne Arundel,Shady Side,MD,20764,14-GL-0645,201461134,10/9/2014,Marsh Establishment,52,0.008,130,0.024,0.032,10,NA,112,88,32,4
83942,2016,National Aquarium In Baltimore,"501 E Pratt St, Betwn Pier 3 & 4 ",-76.60777778,39.28666667,Baltimore City,Baltimore,MD,21202,16-WL-1043,201661853,4/6/2017,Marsh Establishment,0,0.03,400,0.3,0.33,50,NA,NA,NA,NA,NA
83942,2023,National Aquarium In Baltimore,"501 E Pratt St, Betwn Pier 3 & 4 ",-76.607675,39.285012,Baltimore City,Baltimore,MD,21202,23-WL-0217,202360349,9/19/2023,Marsh Establishment,0,0.0974,193.5,0.0376,0.135,50,NA,NA,NA,NA,NA
84026,2009,"Mcmahon, Steven/revetment",18100 Combs Point Lane ,-76.51388883,38.16583331,,St. Marys County,MD,NA,09-WL-0240,200863625,3/21/2011,Marsh Establishment,128,0.026,115,0.026,0.052,20,NA,135,15,10,1
84049,2019,Linda Finch,23290 Holly Park Dr ,-75.89722222,38.81083333,Caroline,Preston,MD,21655,19-GL-1106,201961852,12/19/2019,Marsh Establishment,250,0.016,160,0.034,0.05,20,1,170,25,7,1
84049,2023,Linda Finch,23290 Holly Park Dr ,-75.897076,38.810532,Caroline,Preston,MD,21655,23-GL-0316,202360512,6/1/2023,Marsh Establishment,190,0.0587,300,0.0587,0.117,18,0.5,260,26,9,1
84532,2013,John Swaine III,5998 Bellevue Rd ,-76.18805556,38.71583333,Talbot,Royal Oak,MD,21662,13-GL-0280,201360494,8/1/2013,Marsh Establishment,355,0.0689,400,0.0689,0.1377,15,NA,395,21,6,1
84597,2014,International Association of Machinists and Aerospace Workers,24494 Placid Harbor Way ,-76.50944444,38.34,St. Mary's,Hollywood,MD,20636,14-GL-0800,201461452,11/24/2014,Marsh Establishment,42,0.0065,38,0.0065,0.013,15,NA,59,25,10,1
84877,2020,Francis Rafferty,604 Echo Cove Rd ,-76.605,39.07638889,Anne Arundel,Crownsville,MD,21032,20-GL-0254,202060415,5/26/2020,Marsh Establishment,67,0.01,85,0.01,0.02,24,1,65,48,11,1
85159,2013,Edward and Cheryl Rudzinski,5905 Deale Beach Rd ,-76.53861111,38.78833333,Anne Arundel,Deale,MD,20751,13-GL-0803,201361429,11/8/2013,Marsh Establishment,40,0.0032,69,0.0205,0.0237,15,NA,54,44,16,2
85288,2020,Benjamin Strahl,11012 Trappe Creek Dr ,-75.18333333,38.30027778,Worcester,Berlin,MD,21811,20-GL-0525,202060807,7/31/2020,Marsh Establishment,140,0,144,0.03,0.03,9,1,132,15,6,1
85348,2014,Peter McKenney and Jessica Gibson,266 Providence Rd ,-76.45861111,38.99888889,Anne Arundel,Annapolis,MD,21409,14-GL-0749,201461342,12/2/2014,Marsh Establishment,75,0.01,75,0.01,0.02,20,NA,NA,NA,NA,NA
85419,2013,Claiborne Properties LLC-10241 Sherwood Manor Drive,10241 Sherwood Manor Dr ,-76.26083333,38.83111111,Talbot,Claiborne,MD,21624,13-WL-0992,201361805,6/26/2014,Marsh Establishment,2600,0.2663,1260,0.3527,0.619,30,NA,1260,46,17,1
85585,2021,Estate of George Springston,37445 River Springs Rd ,-76.785887,38.245713,St. Mary's,Avenue,MD,20609,21-GL-1285,202161860,1/4/2022,Marsh Establishment,100,0.06,175,0.06,0.12,25,3,235,70,24,2
85638,2020,Merritt Properties LLC,435 Ginn Lane ,-76.47916667,39.08361111,Anne Arundel,Pasadena,MD,21122,20-WL-0187,202060236,3/17/2022,Marsh Establishment,300,0.0848,379,0.0848,0.1695,70,-1,379,70,24,2
85638,2022,Robb Merritt,435 Ginn Lane ,-76.478792,39.082911,Anne Arundel,Pasadena,MD,21122,22-GL-1089,202261711,11/17/2022,Marsh Establishment,339,0.1266,485,0.1125,0.2391,70,1.6,459,70,24,2
85815,2009,"Latka, Brenda/pier, Pilings, Stone Sill,",7575 Cooper Point Rd ,-76.26638892,38.75888892,Talbot,Bozman,MD,NA,09-GL-0091(R2),200863448,12/20/2011,Marsh Establishment,25,0,83,0.008,0.008,10,NA,83,14,7,1
85815,2018,Brenda Latka,7575 Cooper Point Road ,-76.26611111,38.75888889,Talbot,Bozman,MD,21612,18-GL-0027,201860064,3/8/2018,Marsh Establishment,44,6.00E-04,91,0.008,0.0086,10,0.5,81,15,5,1
86198,2017,Walter and Brande Neese,1730 Garden Of Eden Rd ,-76.16333333,38.59583333,Dorchester,Cambridge,MD,21613,17-WL-0505,201760887,1/10/2017,Marsh Establishment,6056,0.0695,285,0.0695,0.139,25,NA,NA,NA,NA,NA
86215,2009,"Rosenthal, Robert/revetment  And  Dredging",61 Slama Rd ,-76.55416667,38.94611111,Anne Arundel,Edgewater,MD,NA,09-GL-0069,200863414,10/28/2010,Marsh Establishment,15,0,29,0.005,0.005,8,NA,NA,NA,NA,NA
86448,2009,"Gravatt, James J/revetment",27096 Point Rd ,-75.81333333,38.15888886,Somerset,Princess Anne,MD,NA,09-GL-0053,200863393,3/25/2010,Marsh Establishment,9.26,0,50,0.0114,0.0114,10,NA,NA,NA,NA,NA
86486,2011,Gale Hamilton,1 Cheston Avenue; Annapolis ,-76.49694444,38.9725,Anne Arundel,Annapolis,MD,21401,11-GL-0218,201061326,9/14/2011,Marsh Establishment,125,0.022,95,0.016,0.038,17.5,NA,95,26.1,13.5,1
86782,2019,Gerald and Charlene Fair,18235 Oarlock Ln ,-76.50888889,38.16555556,St. Mary's,Valley Lee,MD,20692,19-GL-1167,201961938,1/7/2020,Marsh Establishment,24,0.013,75,0.013,0.026,15,1,75,21,6,1
86944,2013,Clark Reddick,271 Long Point Rd ,-76.56416667,39.04916667,Anne Arundel,Crownsville,MD,21032,13-GL-0324,201360571,6/12/2013,Marsh Establishment,50,0,112,0.03,0.03,34,NA,140,68,11,2
87012,2020,My Wye LLC - Rob Ruff,154 Carmichael Farm Rd ,-76.155327,38.941623,Queen Anne's,Queenstown,MD,21658,20-WL-1571,202062140,10/12/2021,Marsh Establishment,260,0.0252,561,0.0744,0.0997,40,3.8,525,75,23,3
87190,2012,Michael Helfrich,1746 Westmoreland Trail ,-76.52888889,39.0125,Anne Arundel,Annapolis,MD,21401,12-GL-1447,201261734,3/21/2013,Marsh Establishment,185,0.02,90,0.02,0.05,26.5,NA,NA,NA,NA,NA
87508,2011,Herbert and Gloria Henkel,24679 Deep Neck Rd ,-76.2275,38.71555556,Talbot,Royal Oak,MD,21662,11-GL-0074,201061070,2/22/2011,Marsh Establishment,40,0,130,0.049,0.049,16.5,NA,NA,NA,NA,NA
87527,2021,Anna Fichtner,6280 Hopkins Neck Rd ,-76.169598,38.717094,Talbot,Easton,MD,21601,21-GL-0470,202160643,7/20/2021,Marsh Establishment,4,0.01,220,0.005,0.015,5,0.5,110,12,8,1
87780,2018,Edward Wilgus,1414 Bell Island Trail ,-75.62694444,38.34944444,Wicomico,Salisbury,MD,21801,18-GL-0083,201860155,4/26/2018,Marsh Establishment,150,0.0459,225,0.0689,0.1148,20,0.5,225,30,10,1
87799,2020,Gary James,11014 Trappe Creek Drive ,-75.18277778,38.3,Worcester,Berlin,MD,21811,20-GL-0707,202061032,10/5/2020,Marsh Establishment,80,0,180,0.025,0.025,6,1,200,10,4,1
87992,2013,Jon and Jennifer Glaudemans,1084 Trails End Rd ,-76.47583333,39.08583333,Anne Arundel,Pasadena,MD,21122,13-GL-0724,201361280,8/1/2013,Marsh Establishment,60,0.003,30,0.007,0.01,15,NA,NA,NA,NA,NA
88323,2022,Robert Jones Jr,1914 Cedar Rd ,-76.462925,39.13183,Anne Arundel,Pasadena,MD,21122,22-GL-0710,202261106,9/1/2022,Marsh Establishment,0,0.022,65,0.022,0.044,20,NA,NA,NA,NA,NA
88440,2020,Stephen Weinstock,802 Holly Drive East ,-76.43419,39.017175,Anne Arundel,Annapolis,MD,21401,20-GL-1404,202061930,9/8/2021,Marsh Establishment,200,0.03,100,0.03,0.06,35,NA,NA,NA,NA,NA
88465,2011,Rodney and Joy Burbach,1747 Town Point Road ,-76.15861111,38.53472222,Dorchester,Cambridge,MD,21613,11-GL-0214,201061309,11/11/2010,Marsh Establishment,10,0.021,185,0.021,0.042,10,NA,NA,NA,NA,NA
88518,2022,David Schneider,2645 Greenbriar Ln ,-76.528182,38.959733,Anne Arundel,Annapolis,MD,21401,22-GL-0228,202260388,4/28/2022,Marsh Establishment,71,0.015,80,0.015,0.03,16,0.5,98,22,5,1
88589,2013,David Hecht,212 Piney Point Landing ,-76.2,38.90055556,Queen Anne's,Grasonville,MD,21638,13-GL-1040,201361902,12/5/2013,Marsh Establishment,200,0.013,340,0.013,0.026,25,NA,140,35,10,1
88625,2010,"Jerome, Kim  And  Robert/pier, Boatlift  And",2985 Friends Rd ,-76.56750003,38.95833336,Anne Arundel,Annapolis,MD,NA,10-GL-0173,200962391,6/25/2010,Marsh Creation,90,NA,80,NA,NA,20,NA,NA,NA,NA,NA
88626,2013,Ralph Demarco,229 Madison Avenue ,-76.20444444,38.77222222,Talbot,Saint Michaels,MD,21663,13-GL-0853,201361525,11/26/2013,Marsh Establishment,98,0,100,0.0254,0.0254,12,NA,95,20,8,1
88806,2017,Elizabeth Swaine,26076 Royal Oak Rd ,-76.1725,38.74527778,Talbot,Royal Oak,MD,21662,17-GL-0719,201761256,8/15/2017,Marsh Establishment,10,0,150,0.0115,0.0115,5,NA,150,21,9,1
88908,2013,Kenneth Gill,2674 Claibourne Court ,-76.47083333,38.95527778,Anne Arundel,Annapolis,MD,21403,13-GL-0486,201360882,8/6/2013,Marsh Establishment,75,0.02,104,0.02,0.04,20,NA,104,35,13,1
89000,2012,Daryl Wagner-Little Island,Off North Shore;1/8 Mi Offshore ,-76.46333333,39.08388889,Anne Arundel,Pasadena,MD,21122,12-GL-0701,201260419,4/13/2012,Marsh Establishment,50,0.014,130,0.018,0.032,13,NA,148,30,9,1
89000,2020,Daryl Wagner-Little Island,"1000 Dutchship Island Rd, Little Island",-76.463601,39.083858,Anne Arundel,Pasadena,MD,21122,20-WL-0690,202061010,11/16/2020,Marsh Establishment,120,0.0184,60,0.0184,0.0367,30,1,170,95,20,1
89668,2018,Marvin Schuchart,5751 Dockside Ln ,-75.78777778,38.04138889,Somerset,Marion,MD,21838,18-GL-0603,201860995,10/12/2018,Marsh Establishment,25,0,110,0.0103,0.0103,8,NA,NA,NA,NA,NA
89870,2016,Christopher Rivera,23 Homeport Dr ,-76.538998,38.961135,Anne Arundel,Edgewater,MD,21037,16-GL-0450,201660772,7/20/2016,Marsh Establishment,112,0.0232,175,0.0224,0.0456,15,NA,95,70,27,3
89914,2010,"Schanberger, Stephen & Gebhardt, Delores",7816 June Dr ,-76.52,39.14138889,Anne Arundel,Pasadena,MD,21122,10-GL-0343,200963073,1/29/2010,Marsh Establishment,50,0.033,144,0.033,0.066,20,NA,NA,NA,NA,NA
90060,2016,BA Recreation and Parks-Watersedge Park,8820 Bullneck Rd ,-76.49583333,39.24305556,Baltimore,Dundalk,MD,21222,16-WL-0420,201660705,12/5/2016,Marsh Establishment,3260,0.86,1500,0.86,1.72,50,NA,NA,NA,NA,NA
90170,2018,Brad Franzen,45330 Daniels Dr ,-76.506907,38.338251,St. Mary's,Hollywood,MD,20636,18-GL-1214 (R1),201862052,5/11/2021,Marsh Establishment,35,0.012,35,0.012,0.024,15,1.5,35,21,6,1
90526,2014,Jeff Knott,45235 Nats Creek Road ,-76.51138889,38.345,St. Mary's,Hollywood,MD,20636,14-GL-0257,201460467,9/25/2014,Marsh Establishment,47,0.028,173,0.028,0.056,14,NA,306,30,12,2
90585,2017,Terence Golden,1304 Eva Gude Drive ,-76.57472222,39.03416667,Anne Arundel,Crownsville,MD,21032,17-GL-1138,201762070,7/25/2018,Marsh Establishment,90,0.034,190,0.034,0.068,12,2,251,38,12,2
90595,2014,Owen Lewis,47976 Cross Manor Road ,-76.41583333,38.16305556,St. Mary's,Saint Inigoes,MD,20684,14-GL-0515,201460918,10/15/2014,Marsh Establishment,130,0.015,90,0.015,0.03,15,NA,90,22,630,1
90754,2012,Kent Stow,205 Mckinsey Rd ,-76.53027778,39.07583333,Anne Arundel,Severna Park,MD,21146,12-GL-1356,201261564,1/9/2013,Marsh Establishment,80,0.01,90,0.01,0.02,16,NA,NA,NA,NA,NA
90907,2012,Londontown POA-Beach #3,"Beach #3, Shore Drive ",-76.54611111,38.93888889,Anne Arundel,Edgewater,MD,21037,12-GL-0722,201260445,5/14/2012,Marsh Establishment,180,0.025,70,0.014,0.039,23,NA,100,70,24,2
91026,2021,Alexander Schlegel,850 Crandell Rd ,-76.546083,38.833679,Anne Arundel,West River,MD,20778,21-GL-0892,202161270,1/6/2022,Marsh Establishment,70,0.07,266,0.07,0.14,47,1,395,64,14,2
91125,2020,Steven and Janet Smith,46145 East Sunrise Dr ,-76.47833333,38.30861111,St. Mary's,Lexington Park,MD,20653,20-GL-0968,202061444,11/6/2020,Marsh Establishment,12,0.021,60,0.021,0.042,15,1,60,360,6,1
91279,2011,Richard Wicker,1312 Rogers Rd ,-76.40670431,39.03072146,Anne Arundel,Annapolis,MD,21409,11-GL-0498,201160182,4/21/2011,Marsh Establishment,20,0.0076,20,0.0076,0.015,31,NA,77,36,12,2
91491,2012,"Cumberland, Laurence/revetment",2070 Turner Road ,-76.48638889,38.36972222,Calvert,Lusby,MD,20657,12-GL-0686,201260374,4/5/2012,Marsh Establishment,125,0.045,150,0.045,0.09,26,NA,150,35,10,1
91712,2022,Meadow Lake LLC,205 Fantasy Lane ,-76.316965,38.920133,Queen Anne's,Stevensville,MD,21666,22-GL-0176 (R1),202260347,3/21/2023,Marsh Establishment,72,0.0057,75,0.0057,0.0344,20,1,75,20,5,1
92152,2019,James Bonan,6589 Locust Grove Rd ,-76.11416667,38.73194444,Talbot,Easton,MD,21601,19-GL-0307,201960437,4/23/2019,Marsh Establishment,35,0.008,45,0.013,0.02,26,0.5,50,16,10,1
92180,2020,Elizabeth Hormel ,4427 Roslyn Farm Rd ,-76.10861111,38.67277778,Talbot,Trappe,MD,21673,20-WL-0237,202060387,6/10/2020,Marsh Establishment,850,0.218,965,0.278,0.496,35,1,855,40,13,1
92306,2014,Paul Intlekofer,663 Shore Road ,-76.58611111,39.07222222,Anne Arundel,Severna Park,MD,21146,14-WL-0294,201460521,12/22/2014,Marsh Establishment,110,0.017,72,0.017,0.034,35,NA,NA,NA,NA,NA
92377,2014,"MD DNR-Deal Island WMA, North Boat Ramp",Game Preserve Road ,-75.88055556,38.17388889,Somerset,Princess Anne,MD,21853,14-WL-0762,201461363,1/26/2015,Marsh Establishment,1481,0,900,0.29,0.29,14,NA,NA,NA,NA,NA
92773,2012,Michael Batza,400 Stagwell Farm Lane ,-76.155,38.93777778,Queen Anne's,Queenstown,MD,21658,12-GL-0832,201260642,6/20/2012,Marsh Establishment,696,0.044,500,0.298,0.346,27,NA,500,41,14,2
92773,2014,Stagwell Limited Partnership-Michael Batza,400 Stagwell Farm Lane ,-76.15527778,38.93777778,Queen Anne's,Queenstown,MD,21658,14-GL-0378,201460690,6/26/2014,Marsh Establishment,300,0.056,328,0.07,0.13,19.5,NA,355,58,23.5,2
92773,2022,Michael Batza,400 Stagwell Farm Lane ,-76.156094,38.933561,Queen Anne's,Queenstown,MD,21658,22-GL-0921,202261458,11/2/2022,Marsh Establishment,250,0.0597,325,0.1044,0.1641,22,2.5,325,35,17,1
92848,2015,Wheelabrator Baltimore LP,1801 Annapolis Rd ,-76.62777778,39.26916667,Baltimore City,Baltimore City,MD,21230,15-GL-0906,201561581,1/19/2016,Marsh Establishment,330,0.04,70,0.018,0.058,30,NA,NA,NA,NA,NA
92881,2011,Donna Campbell,4502 Maple Dam Rd ,-76.08083333,38.47472222,Dorchester,Cambridge,MD,21613,11-GL-0407,201160014,7/19/2011,Marsh Establishment,3,0,10,0.004,0.004,20,NA,NA,NA,NA,NA
93046,2012,Nicholas Stoer,118 Kirwans Landing Lane ,-76.27333333,38.96138889,Queen Anne's,Chester,MD,21619,12-GL-0356,201161632,11/28/2011,Marsh Establishment,75,0.01,150,0.01,0.02,15,NA,NA,NA,NA,NA
93232,2018,James Wray,45300 Scotch Neck Rd ,-76.5075,38.33583333,St. Mary's,Hollywood,MD,20636,18-GL-1113,201861860,12/10/2018,Marsh Establishment,1,0.014,40,0.014,0.028,15,1,40,21,6,1
93343,2013,Peter Ackerman,26890 Double Mills Road ,-76.14416667,38.73277778,Talbot,Easton,MD,21601,13-WL-1059,201361933,6/10/2014,Marsh Establishment,1640,0,750,0.258,0.258,15,NA,750,23,11,1
93343,2018,Peter Ackerman,"26890 Double Mills Rd, Map 41, Parcel 271",-76.13916667,38.73888889,Talbot,Easton,MD,21601,18-GL-1010,201861681,11/26/2018,Marsh Establishment,572,0.1,894,0.15,0.2645,19,0.5,844,27,8,2
93511,2018,Mary DeOreo,7425 Quaker Neck Rd ,-76.24638889,38.75277778,Talbot,Bozman,MD,21612,18-GL-0081,201860153,6/6/2018,Marsh Establishment,60,0.019,138,0.018,0.038,10,0.5,138,16.5,7,1
93528,2018,"6184 Shipyard Lane, LLC",6184 Shipyard Lane ,-76.13888889,38.72138889,Talbot,Easton,MD,21601,18-GL-0723(R1),201861207,6/14/2019,Marsh Establishment,90,0.02,450,0.07,0.08,34,1.5,450,60,18,2
93622,2022,Ryan & Meegan Kennedy,10168 Waterview Dr ,-75.127642,38.343751,Worcester,Ocean City,MD,21842,22-GL-0678,202261078,8/11/2023,Marsh Establishment,29,0,490,0.187,0.187,20,0.8,350,30,10,1
93826,2012,Dublyn Group LLC,4774 Bar Neck Road ,-76.33111111,38.68,Talbot,Tilghman,MD,21671,12-WL-0714,201260425,11/13/2012,Marsh Establishment,500,0.1,455,0.1,0.2,19,NA,466,48,11.5,1
93826,2018,Dr. William Smith,4774 Bar Neck Road ,-76.33166667,38.68027778,Talbot,Tilghman,MD,21671,18-GL-0049,201860096,3/28/2018,Marsh Establishment,570,0.1018,450,0.0527,0.1545,25,0.5,460,25,10,1
94220,2018,Stephen Neal,1553 Widows Mite Rd ,-76.535086,38.936543,Anne Arundel,Edgewater,MD,21037,18-GL-0085,201860162,4/9/2018,Marsh Establishment,116,0.0092,50,0.0115,0.021,18,1,188,50,16,2
94415,2015,City of Annapolis-Annapolis Maritime Museum,723 Second St ,-76.47611111,38.96916667,Anne Arundel,Annapolis,MD,21403,15-WL-0004,201560003,5/15/2015,Marsh Establishment,655,0.0344,200,0.0367,0.071,40,NA,130,76,59,2
94536,2017,Kenneth Green,4139 School Rd ,-76.55083333,38.42138889,Calvert,Broomes Island,MD,20615,17-GL-0971,201761761,11/9/2017,Marsh Establishment,25,0.034,20,0.0034,0.0068,15,NA,20,21,6,1
94631,2013,Stephen Gordon,6727 George Island Landing Road ,-75.36138889,38.04361111,Worcester,Stockton,MD,21864,13-WL-0921,201361659,5/2/2014,Marsh Establishment,46,0.009,125,0,0.009,3,NA,NA,NA,NA,NA
94670,2021,Jay Shah,11128 Green Cove Drive ,-76.165894,39.285537,Kent,Worton,MD,21678,21-GL-0743,202161034,9/7/2021,Marsh Establishment,40,0.0138,120,0.0184,0.0321,30,1.5,24,30,13.5,1
94678,2021,Kevin Keyes,1234 Cherry Tree Ln ,-76.482957,38.928506,Anne Arundel,Annapolis,MD,21403,21-GL-0183 (R1),202160271,3/28/2022,Marsh Establishment,60,0.02,80,0.02,0.04,20,NA,NA,NA,NA,NA
94873,2013,Kasey Turner,1020 Plum Creek Drive ,-76.58027778,39.06305556,Anne Arundel,Crownsville,MD,21032,13-GL-0973,201361775,1/7/2016,Marsh Establishment,133,0,115,0.05,0.05,20,NA,90,27,9,1
95047,2023,Timothy & Teresa Ronaghan,26979 Bunny Lane ,-76.143196,38.77722,Talbot,Easton,MD,21601,23-GL-0261,202360413,6/6/2023,Marsh Establishment,163,0.051,205,0.051,0.1011,24,0.5,205,35,12,1
95048,2012,James and Linda Bodycomb,1100 Hellen Creek Dr ,-76.46833333,38.36388889,Calvert,Lusby,MD,20657,12-GL-0001,201161004,8/4/2011,Marsh Establishment,20,0,70,0.024,0.024,15,NA,70,25,5,1
95095,2020,Chesapeake Bay Foundation Inc,1917 Holly Beach Farm Rd ,-76.423473,38.994132,Anne Arundel,Annapolis,MD,21401,20-WL-0647,202060978,12/11/2020,Marsh Establishment,6075,0.59,2085,0.55,1.15,34,NA,NA,NA,NA,NA
95439,2011,"Gloyd, Carlton A/pier",24499 New Post Rd ,-76.22805556,38.81888889,Talbot,Saint Michaels,MD,21663,11-WL-0225,201061341,5/10/2011,Marsh Establishment,220,0.0643,200,0.051,0.1153,25,NA,185,35,10,1
95439,2021,Ellis Juan,24499 New Post Rd ,-76.228687,38.818509,Talbot,Saint Michaels,MD,21663,21-WL-0987,202161405,12/27/2022,Marsh Establishment,267,0.055,240,0.055,0.11,20,NA,NA,NA,NA,NA
95995,2012,South River Landing Council Of Unit Owners,South River Landing Rd ,-76.54722222,38.94222222,Anne Arundel,Edgewater,MD,21037,12-GL-1515,201261842,3/12/2013,Marsh Establishment,12.5,0,148,0.01,0.01,3,NA,133,91,26,5
96310,2021,Laurel Acres Imp Assn,612 Laurel Drive ,-76.520488,39.097606,Anne Arundel,Pasadena,MD,21122,21-WL-0350,202160496,8/12/2021,Marsh Establishment,99,0.0161,70,0.0161,0.0321,27,0.5,150,35,8,1
96538,2011,Society of the Divine Savior-Camp St Charles,15375 Stella Maris Dr ,-76.8475,38.29194444,Charles,Rock Point,MD,20664,11-WL-0422,201160034,6/10/2011,Marsh Establishment,1274,0,440,0.08,0.08,12,NA,609,90,31,2
96538,2021,Society of the Divine Savior-Camp St Charles,15375 Stella Marie Dr ,-76.846366,38.291828,Charles,Newburg,MD,20664,21-GL-0308,202160411,6/28/2021,Marsh Establishment,0,0.059,232,0.059,0.118,24,1.5,232,35,9,1
96551,2014,Richard Tranchida,1556 And 1557 Widows Mite Road ,-76.53611111,38.93555556,Anne Arundel,Edgewater,MD,21037,14-GL-0646,201461150,10/9/2014,Marsh Establishment,800,0.0774,339,0.0893,0.1667,21,NA,243,140,48,4
97041,2014,Rodrick Jabin,2504 Lyon Drive ,-76.47,38.95444444,Anne Arundel,Annapolis,MD,21403,14-GL-1079,201461959,3/31/2015,Marsh Establishment,0,0,100,0.0459,0.0459,20,NA,100,35,25,1
97624,2016,HRS Real Estate LLC-400 Town Point Road,400 Town Point Rd ,-75.88555556,39.47944444,Cecil,Chesapeake City,MD,21915,16-WL-0509,201660899,3/9/2017,Marsh Establishment,960,0.075,300,0.075,0.015,22,NA,305,42,10,1
97659,2012,N and E Investment Partnership,27923 Little Park Rd ,-76.10388889,38.84472222,Talbot,Easton,MD,21601,12-GL-0885,201260715,8/1/2012,Marsh Establishment,110,0,99,0.0321,0.0321,35,NA,0,0,0,1
97659,2013,N and E Investments-Timberneck Farms,Sharps Road ,-76.10583333,38.845,Talbot,Easton,MD,21601,13-GL-0983,201361797,3/27/2014,Marsh Establishment,40,0,155,0.038,0.038,16,NA,155,35,6,1
97703,2013,Wildfowl Trust of North America Inc-Chesapeake Bay Environmental Center,600 Discovery Ln ,-76.23638889,38.95138889,Queen Anne's,Grasonville,MD,21638,13-GL-1156,201362112,3/17/2014,Marsh Establishment,6.3,0.014,160,0.047,0.061,18,NA,NA,NA,NA,NA
97703,2021,Chesapeake Bay Environmental Center,"600 Discovery Ln, 38.947401, -76.229040",-76.229387,38.947538,Queen Anne's,Grasonville,MD,21638,21-WL-0034,202160043,11/3/2022,Marsh Establishment,21304.9,0,NA,6.71,6.71,NA,0,631,25.2,17.6,1
98229,2012,Robert Aldridge,22164 Miller Ct. ,-76.63555556,38.27666667,St. Mary's,Leonardtown,MD,20650,12-GL-0183,201161302,9/8/2011,Marsh Establishment,100,0.011,66,0.011,0.022,15,NA,66,20,7,1
98320,2019,Steve Sharkey,1022 E Benning Rd ,-76.54194444,38.84638889,Anne Arundel,Galesville,MD,20765,19-GL-0931,201660477,9/25/2019,Marsh Establishment,80,0.0083,50,0.0083,0.0165,14,0.5,60,20,5,1
98388,2017,Bald Eagle Nest Revocable Trust,4780 Wintersell Road ,-76.11555556,38.68,Talbot,Oxford,MD,21654,17-GL-0365,201760606,5/22/2018,Marsh Establishment,327,0.0686,450,0.0686,0.1372,27,NA,413,35,8,1
98958,2010,"Vivacqua, Ray/living Shoreline",7773 Quaker Neck Rd ,-76.25999997,38.76583333,Talbot,Bozman,MD,NA,10-GL-0273,200962888,7/12/2010,Marsh Establishment,335,0.041,300,0.048,0.09,13,NA,300,21,8,1
99100,2023,Chestnut Hill Cove HOA,Chestnut Cove Dr ,-76.544322,39.167443,Anne Arundel,Curtis Bay,MD,21226,23-WL-0022,202261705,10/25/2023,Marsh Establishment,0,0.0061,30,0.022,0.0281,50,3,30,120,120,3
99209,2017,Peter Kunkel,16 Byford Ct ,-76.05944444,39.21166667,Kent,Chestertown,MD,21620,17-GL-1005,201761823,11/3/2017,Marsh Establishment,180,0.025,145,0.0566,0.0666,20,NA,147,35,8,1
99221,2017,Berrywood Homeowners Association,Berrywood Community Assoc ,-76.547637,39.086624,Anne Arundel,Severna Park,MD,21146,17-WL-0839,201761511,8/7/2018,Marsh Establishment,248.3,0.09,430,0.087,0.18,20,-1,120,30,10,1
99770,2013,Steven Lieberman,2060 Poplar Ridge Rd ,-76.45138889,39.13027778,Anne Arundel,Pasadena,MD,21122,13-GL-0022,201360027,2/8/2013,Marsh Establishment,260,0.08,300,0.06,0.14,20,NA,340,30,10,1
99859,2016,TLS Enterprises LLC,24579 Deep Neck Road ,-76.22722222,38.71555556,Talbot,Royal Oak,MD,21662,16-GL-0239,201660406,7/8/2016,Marsh Establishment,345,0.0714,325,0.0714,0.1428,20,NA,325,27,7,1
99859,2019,TLS Enterprises LLC,24579 Deep Neck Road ,-76.22805556,38.71583333,Talbot,Royal Oak,MD,21662,19-WL-0581,201960892,11/14/2019,Marsh Establishment,895,0.186,675,0.186,0.366,40,1,620,132,14,2
100203,2018,Loren and Linda Haneline,28400 Old Country Club Road ,-76.09166667,38.73305556,Talbot,Easton,MD,21601,18-GL-0758,201861263,9/17/2018,Marsh Establishment,170,0.035,153,0.035,0.0702,20,0.5,153,30,10,1
100257,2018,Alan and Cynthia Funk,976 Arden View Place ,-76.57611111,39.06805556,Anne Arundel,Crownsville,MD,21032,18-GL-1089,201861830,3/5/2019,Marsh Establishment,140,0.017,40,0.017,0.034,35,2,365,10,10,1
100281,2016,Beach Harbor Campers Cooperative Inc,111 Beach Harbor Dr ,-76.21916667,38.96777778,Queen Anne's,Grasonville,MD,21638,16-GL-1041,201661851,3/15/2017,Marsh Establishment,117,0.024,125,0.011,0.035,12,NA,125,12,8,1
100473,2014,Eugene Guazzo,36111 Willow Glen Farm Lane ,-76.82805556,38.31666667,St. Mary's,Chaptico,MD,20621,14-GL-0591,201461040,10/16/2014,Marsh Establishment,250,0.077,450,0.077,0.154,15,NA,450,22,7,1
100479,2020,Mike Brooks,1111 Thompson Ct ,-76.484341,38.439719,Calvert,Saint Leonard,MD,20685,20-GL-0731,202061091,11/20/2020,Marsh Establishment,40,0.03,165,0.03,0.06,15,1.5,165,24,9,1
101126,2020,Magdalene Flannery,997 Round Bay Road ,-76.575,39.04138889,Anne Arundel,Crownsville,MD,21032,20-GL-0795,202061203,12/16/2020,Marsh Creation,17,NA,65,NA,NA,25,1,65,25,6,1
101173,2013,Kenneth and Christine Hendershot,241 Deer Drive ,-76.44416667,38.33,Calvert,Lusby,MD,20657,13-GL-0248,201360456,4/22/2013,Marsh Establishment,51,0.0156,91,0.0156,0.0312,15,NA,91,42,8,2
101208,2011,Steven and Julie Burleson,26421 Presquile Drive South ,-76.16055556,38.86444444,Talbot,Easton,MD,21601,11-GL-0430(R1),201160052,9/21/2012,Marsh Establishment,100,0.015,140,0.015,0.032,15,NA,140,23,6,1
101542,2012,John and Lisa Kennedy,1336 Kinloch Circle ,-76.52333333,39.03222222,Anne Arundel,Arnold,MD,21012,12-GL-0082,201161132,8/29/2011,Marsh Establishment,50,0.0075,65,0.0075,0.015,17,NA,85,23,6,1
101625,2011,Parkwood Civic Assn,"Springdale Ave & Back Creek, Annapolis ",-76.48527778,38.95916667,Anne Arundel,Annapolis,MD,21403,11-WL-0329,201061547,8/26/2011,Marsh Establishment,1400,0.16,640,0.2,0.27,35,NA,NA,NA,NA,NA
101626,2014,John Derrick,1301 Wrenn Circle ,-76.51972222,38.83333333,Anne Arundel,Shady Side,MD,20764,14-GL-0553,201460979,9/29/2014,Marsh Establishment,6,0,35,0.006,0.006,7,NA,35,36,11,2
101768,2012,Herrington Partnership LLP-North Marina,"Deale Rd, Rte 256 ",-76.56472222,38.77694444,Anne Arundel,Deale,MD,20751,12-WL-0819,201260618,11/29/2012,Marsh Establishment,275,0,288,0.069,0.069,16,NA,NA,NA,NA,NA
101807,2016,Donald Matson,7 Saunders Point Lane ,-76.532118,38.952632,Anne Arundel,Annapolis,MD,21403,16-GL-0939,201661655,3/9/2017,Marsh Establishment,86,0.0234,120,0.0234,0.0468,17,NA,120,25,8,1
101994,2012,Sue Smith,4265 Hance Road ,-76.59416667,38.45777778,Calvert,Port Republic,MD,20676,12-GL-0829,201260634,5/22/2012,Marsh Establishment,600,0.13,445,0.13,0.26,24,NA,NA,NA,NA,NA
102041,2015,RWOC Properties LLC-Frescos Restaurant,8203 Coastal Hwy ,-75.0625,38.40194444,Worcester,Ocean City,MD,21842,15-GP-0153,201560298,4/7/2015,Marsh Establishment,0,0.0467,95,0,0.0467,95,NA,NA,NA,NA,NA
102062,2015,Frank and Sheila Lamont,29303 Glencoe Road ,-75.9475,39.36111111,Kent,Kennedyville,MD,21645,15-GL-0191,201560330,6/5/2015,Marsh Establishment,60,0.0146,70,0.015,0.0296,16,NA,101,26,10.5,1
102102,2012,Richard Juppenlatz,45062 Blackistone Circle ,-76.51638889,38.35,St. Mary's,Hollywood,MD,20636,12-GL-0117,201161191,10/14/2011,Marsh Establishment,60,0.016,117,0.016,0.032,12,NA,117,20,8,1
102104,2013,James and Judith Carr,47892 Buena Vista Lane ,-76.41916667,38.1675,St. Mary's,Lexington Park,MD,20653,13-GL-0043,201360078,5/2/2013,Marsh Establishment,66,0.018,110,0.018,0.036,14,NA,110,21,7,1
102110,2021,AA DPW - Mayo Beach Park,"4150 Honeysuckle Dr, Mayo Beach Park ",-76.491222,38.893067,Anne Arundel,Edgewater,MD,21037,21-WL-0822,202161151,3/4/2022,Marsh Establishment,5100,0,245,0,0.244,44,NA,NA,NA,NA,NA
102113,2012,Charles and Jane Dougherty,5602 Ross Neck Road ,-76.24333333,38.5725,Dorchester,Cambridge,MD,21613,12-GL-1127,201261123,10/16/2012,Marsh Establishment,46,0.016,82,0.016,0.032,17,NA,82,25,9.6,1
102135,2015,Charlotte Sterling Sharf,3159 Williams Point Road ,-75.65527778,37.96416667,Somerset,Marion Station,MD,21838,15-WL-0539,201560952,3/25/2016,Marsh Establishment,235,0,650,0.1951,0.1951,29,NA,550,20,4,1
102147,2019,Robert Goodson,7661 Tred Avon Cir ,-76.10388889,38.76083333,Talbot,Easton,MD,21601,19-GL-1031,201961720,11/13/2019,Marsh Establishment,20,0,60,0.0107,0.0107,9,0.5,185,21,8,1
102399,2016,Arnold and Courtney Capute,1108 Ball Park Road ,-76.23333333,38.33361111,Dorchester,Fishing Creek,MD,21634,16-GL-1084,201661933,1/20/2017,Marsh Establishment,35,0.04,120,0.21,0.61,20,NA,120,35,13,1
102528,2016,Ronald Telford,1291 Magothy Rd ,-76.46694444,39.09083333,Anne Arundel,Pasadena,MD,21122,16-GL-1052,201661871,2/8/2017,Marsh Establishment,100,0.046,280,0.046,0.092,15,NA,300,27,12,1
102671,2019,Gregory and Linda Rutkai,1057 Carrs Wharf Rd ,-76.515,38.88777778,Anne Arundel,Edgewater,MD,21037,19-GL-0649,201960999,6/26/2019,Marsh Establishment,98,0.0303,176,0.0303,0.061,15,0.5,229,20,5,1
102843,2018,Frank's Hunting Creek Farm LLC,26620 Riverslie Dr ,-76.16555556,38.79444444,Talbot,Easton,MD,21601,18-GL-0627,201861038,8/31/2018,Marsh Establishment,290,0.035,230,0.037,0.072,15,0.5,230,25.5,11,1
102894,2015,Juliet Page,253 Mill Church Road ,-76.508725,39.061089,Anne Arundel,Arnold,MD,21012,15-GL-0455,201560825,7/20/2015,Marsh Establishment,6.9,0.0035,30,0.0017,0.0052,7,NA,NA,NA,NA,NA
103017,2013,Michael Hager,"27950 Tred Avon Drive, C/O Anne W Petosa Trustee",-76.10861111,38.75833333,Talbot,Easton,MD,21601,13-GL-0505,201360919,8/9/2013,Marsh Establishment,245,0.066,382,0.069,0.135,16,NA,359,32,13,1
103146,2022,Geoff & Jessica Gregory,20997 Haven Road ,-76.246103,39.142443,Kent,Rock Hall,MD,21661,22-GL-0274,202260457,7/25/2022,Marsh Establishment,2.5,0,25,0.0016,0.0016,5,0.5,100,5,5,1
103367,2015,Jerome Kaplan,9330 Tilghman Island Rd ,-76.30833333,38.80805556,Talbot,McDaniel,MD,NA,15-GL-0069,201560134,3/13/2018,Marsh Establishment,43,0,214,0.0267,0.0267,5.5,NA,NA,NA,NA,NA
103602,2013,The Wading Place Inc,610 Discovery Lane ,-76.23583333,38.94694444,Queen Anne's,Grasonville,MD,21638,13-WL-0175,201360305,7/11/2013,Marsh Establishment,14,0,25,0.005,0.005,6,NA,75,5,5,1
103752,2015,AA Rec and Parks-Thomas Point Park,End Of Thomas Point Road ,-76.46723,38.909671,Anne Arundel,Annapolis,MD,21403,15-WL-0343,201560626,3/16/2016,Marsh Establishment,636,0.09,260,0.22,0.31,60,NA,260,100,11,1
103771,2013,Town Of Centreville-Chesterfield Avenue and Front Street,Intersect Of Chesterfield Avenue And Front Street ,-76.075,39.05305556,Queen Anne's,Centreville,MD,21617,13-GL-0166,201360292,5/20/2013,Marsh Establishment,8,0.0055,26,0.01,0.0155,37,NA,30,34,8,1
103807,2020,George and Teresa Hulseman,7301 Waverly Island Rd ,-76.11027778,38.74861111,Talbot,Easton,MD,21601,20-GL-0275,202060444,3/30/2020,Marsh Establishment,3,0,32,0.003,0.003,4,0,32,9,4,1
103921,2014,Matthew Brodak,20022 Nanticoke Road ,-75.905,38.24194444,Wicomico,Nanticoke,MD,21840,14-GL-0640,201461123,8/22/2014,Marsh Establishment,425,0.0882,320,0.0995,0.184,25,NA,320,35,10,1
103995,2016,BA Rec  and  Parks-Inverness Park,Inverton Road ,-76.49083333,39.25583333,Baltimore,Dundalk,MD,21222,16-WL-0240,201660408,12/6/2016,Marsh Establishment,2600,0.07,1840,1.09,1.16,26,NA,2220,70,5,1
104426,2014,Herrington Partnership Inc-Herrington Harbor South Marina,Rte 261 ,-76.54111111,38.72861111,,Rose Haven,MD,20758,14-WL-0462,201460836,12/1/2014,Marsh Establishment,150,0.032,130,0.028,0.06,20,NA,NA,NA,NA,NA
104466,2021,Enoch & Margaret Bryant,13100 Dyer Road ,-76.85665,38.287275,Charles,Newburg,MD,20664,21-GL-0595,202160813,9/21/2021,Marsh Establishment,40,0.019,113,0.019,0.038,15,1.5,113,24,9,1
104604,2015,Peter Fellowes,27894 Dixon Creek Lane ,-76.11166667,38.77083333,Talbot,Easton,MD,21601,15-GL-0128,201560254,6/22/2015,Marsh Establishment,63,0,440,0.092,0.092,12,NA,NA,NA,NA,NA
105065,2018,Michael and Barbara Gavin,316 North Drive ,-76.5325,39.09222222,Anne Arundel,Severna Park,MD,21146,18-GL-1104,201861878,2/19/2019,Marsh Establishment,25,0.0047,64,0.0047,0.0094,7.5,0.5,64,10,1.5,1
105139,2011,Christine Thalmann and Kopi LLC,6513 Diamond Hall Road ,-76.14972222,38.72777778,Talbot,Easton,MD,21601,11-GL-0556,201160298,5/24/2011,Marsh Establishment,60,0.0014,35,0.0014,0.0028,6,NA,35,10,NA,1
105290,2019,Michael and Lisa Owens,1001 Melvin Road ,-76.525,38.94305556,Anne Arundel,Annapolis,MD,21403,19-GL-0674,201961039,7/12/2019,Marsh Establishment,25,0.0092,55,0.016,0.025,22,1,99,30,10,1
105423,2011,"Trentman, Henry Living Shoreline",4855 Kings Road ,-76.59361111,38.45527778,Calvert,Saint Leonard,MD,20685,11-WL-0126,201061184,1/18/2011,Marsh Establishment,950,0.2346,1695,0.5103,0.75,35,NA,NA,NA,NA,NA
105494,2018,Chesapeake Gateway Holdings LLC,1800 Holly Beach Farm Road ,-76.42472222,39.00111111,Anne Arundel,Annapolis,MD,21401,18-WL-0857,201861424,12/2/2019,Marsh Establishment,930,0.25,535,0.25,0.5,50,NA,NA,NA,NA,NA
105513,2021,DCM Enterprises LLC,12234 Lois St ,-75.165771,38.414757,Worcester,Bishopville,MD,21813,21-GL-0254,202160391,9/8/2021,Marsh Establishment,57,0.008,106,0.02,0.028,9,0.5,106,15,6,1
105603,2017,Mike and Shelley Andrews,27621 Ashby Dr ,-76.11833333,38.81805556,Talbot,Easton,MD,21601,17-GL-0532,201760934,7/26/2017,Marsh Establishment,40,0.0117,57,0.0117,0.0237,16,NA,NA,NA,NA,NA
105726,2014,Pines On The Severn,South Of 188 Severn Way ,-76.51361111,39.02222222,Anne Arundel,Arnold,MD,21012,14-GL-0555,201460982,7/21/2014,Marsh Establishment,800,0.03,709,0.13,0.16,35,NA,NA,NA,NA,NA
105789,2017,James and Janet Clausen and Diane Lawrence,301 & 303 Kyle Road ,-76.56138889,39.05166664,Anne Arundel,Crownsville,MD,21032,17-WL-0367,201760607,6/3/2019,Marsh Establishment,3276.1,0.59,1086,0.48,1.07,69,2,695,140,15,1
106143,2012,Annapolis Cove Community,Ne Of Intersect Of Catrina Lane And Ketch Court ,-76.46666667,38.94444444,Anne Arundel,Annapolis,MD,21403,12-WL-0068,201161111,12/14/2011,Marsh Establishment,888,0.37,650,0.24,0.61,35,NA,639,40,15,1
106170,2015,James Krilich,16640 St Jeromes Neck Rd ,-76.3375,38.12277778,St. Mary's,Dameron,MD,20628,15-GL-0566,201560994,9/4/2015,Marsh Establishment,258,0.047,293,0.047,0.094,14,NA,293,20,5.33,1
106224,2017,Timothy and Suzanne Leon,6431 Bozman Neavitt Rd ,-76.28722222,38.72833333,Talbot,Neavitt,MD,21652,17-GL-0643,201761114,8/15/2017,Marsh Establishment,39,0.008,70,0.008,0.016,12,NA,70,18,10.4,1
106822,2013,David Granger,4306 World Farm Road ,-76.13805556,38.66722222,Talbot,Oxford,MD,21654,13-WL-0365,201360659,4/18/2014,Marsh Establishment,415,0,450,0.1221,0.1221,27,NA,445,85,9.8,1
106973,2021,Richard Smith,7310 Solitude Rd ,-76.200499,38.750154,Talbot,Saint Michaels,MD,21663,21-WL-1184,202161708,4/29/2022,Marsh Establishment,200,0.0689,815,0.0459,0.1148,8,1.5,815,46,22,3
107237,2011,Lewis Design Group-Frog Mortar Road,Lots 58-61 Frog Mortar Road ,-76.39888889,39.31805556,Baltimore,Bowleys Quarters,MD,21220,11-GL-0644,201160471,6/30/2011,Marsh Establishment,82.2,0.055,120,0.0459,0.1,20,NA,NA,NA,NA,NA
107321,2012,Todd and Deborah Sloan,24779 Rays Point Road ,-76.21972222,38.7675,Talbot,Saint Michaels,MD,21663,12-GL-0610,201260191,5/1/2012,Marsh Establishment,0,0,105,0.0072,0.0072,3,NA,NA,NA,NA,NA
107445,2019,Alice Dorshow,7850 Marshall Rd ,-76.53861111,38.42416667,Calvert,Saint Leonard,MD,20685,19-WL-1189,201961995,6/17/2020,Marsh Establishment,1160,0.18,1037,0.18,0.36,15,1,1037,21,6,1
107558,2018,Thomas Mitchell,6120 Jeffries Road ,-76.12777778,38.71666667,Talbot,Easton,MD,21601,18-GL-0222,201860418,9/5/2018,Marsh Establishment,167,0.0258,133,0.0258,0.0516,21,1,133,35,14,1
107694,2021,Robert Atlas,7250 Cooper Point Rd ,-76.274376,38.749707,Talbot,Bozman,MD,21612,21-GL-1480,202162173,2/24/2021,Marsh Establishment,60,0.0126,212,0.0126,0.0253,20,0.5,212,27,8,1
107988,2011,Joan Berger,"7772 Ratcliff Manor Drive, End Of Ratcliff Manor Drive",-76.11277778,38.76388889,Talbot,Easton,MD,21601,11-GL-0302,201061474,5/25/2011,Marsh Establishment,10,0,47,0.0055,0.0055,23,NA,47,23,10,1
108368,2020,James Thompson,27159 Baileys Neck Rd ,-76.1325,38.715,Talbot,Easton,MD,21601,20-GL-0377,202060594,6/3/2020,Marsh Establishment,188,0.0185,190,0.0144,0.0324,21,2.6,241,39,20,3
109029,2013,Ralph Oman,2207 Garrity Road ,-76.48861111,38.4175,Calvert,Saint Leonard,MD,20657,13-GL-0655,201361162,8/13/2013,Marsh Establishment,30,0.018,105,0.018,0.036,15,NA,105,21,6,1
109216,2016,Bonnie Bradley,6934 Travelers Rest Circle ,-76.12888889,38.73916667,Talbot,Easton,MD,21601,16-WL-0882,201661550,4/21/2017,Marsh Establishment,45,0,76,0.017,0.017,50,NA,NA,NA,NA,NA
109271,2019,Frederick Bauer,2019 Pig Neck Road ,-76.13694444,38.53055556,Dorchester,Cambridge,MD,21613,19-GL-0446,201960661,6/14/2019,Marsh Establishment,350,0.0574,360,0.0918,0.1492,25,0.5,235,35,10,1
109370,2019,St Helena Island LLC,515 Ridgely Rd ,-76.574736,39.042498,Anne Arundel,Crownsville,MD,21032,19-GL-1092,201961822,1/14/2020,Marsh Establishment,22,0,43,0.018,0.018,12,0,63,18.5,6,2
109445,2012,Sherwood Forest Club Inc,Community Property Along Beach Drive ,-76.545,39.03055556,Anne Arundel,Sherwood Forest,MD,21405,12-WL-0455,201161825,2/27/2012,Marsh Establishment,150,0.016,70,0.016,0.03,14,NA,NA,NA,NA,NA
109618,2011,Donna McMillan,4732 Frederick Ave. ,-76.49944444,38.85083333,Anne Arundel,Shady Side,MD,20764,11-GL-0289,201061485,12/21/2011,Marsh Establishment,30,0,78,0.02,0.02,15,NA,NA,NA,NA,NA
109668,2014,Ignacio Rodriguez,1290 Turkey Point Road ,-76.49583333,38.90861111,Anne Arundel,Edgewater,MD,21037,14-WL-0764,201461398,4/21/2015,Marsh Establishment,600,0.043,360,0.146,0.1894,23,NA,NA,NA,NA,NA
109959,2010,Edwin Keller,39210 Hodges Rd ,-76.71944444,38.27444444,St. Mary's,Avenue,MD,20609,10-GL-0758,201060483,7/30/2010,Marsh Creation,222,NA,200,NA,NA,30,NA,NA,NA,NA,NA
109972,2015,Judy Vandever,8140 Riverside Drive ,-76.44472222,39.1225,Anne Arundel,Pasadena,MD,21122,15-GL-0737,201561281,11/24/2015,Marsh Establishment,17,0,142,0.02,0.02,6,NA,134,16,5,1
109992,2013,"Mathews, George/revetment",695 Seagull Beach Rd ,-76.66222222,38.49916667,Calvert,Prince Frederick,MD,20678,13-GL-0216,201360395,4/19/2013,Marsh Establishment,250,0.06,350,0.06,0.12,15,NA,370,35,8,1
110528,2017,Shore Gen Ventures LLC,11 Byford Ct ,-76.05666667,39.21277778,Kent,Chestertown,MD,21620,17-GL-0588,201761013,8/18/2017,Marsh Establishment,15,0.0505,200,0.0758,0.1263,20,NA,NA,NA,NA,NA
110703,2010,Columbia Realty Venture LLC/Watergate Village,Americana Dr ,-76.48361111,38.96361111,Anne Arundel,Annapolis,MD,21403,10-GL-0325,200963033,2/4/2010,Marsh Establishment,360,0.03,195,0.04,0.07,25,NA,NA,NA,NA,NA
110914,2020,Paul and Marie McNurlan,213 Walnut Drive ,-76.161143,38.966105,Queen Anne's,Queenstown,MD,21658,20-GL-1507,202062057,4/19/2021,Marsh Establishment,2133,0,440,0.11,0.11,15,0.5,400,15,7,1
111003,2014,Charles Hughes III,2526 Key Wallace Dr ,-76.08027778,38.44916667,Dorchester,Cambridge,MD,21613,14-GL-0387,201460705,7/21/2014,Marsh Establishment,115,0,130,0.024,0.24,8,NA,105,16,8,1
111003,2017,Charles Hughes III,2526 Key Wallace Dr ,-76.08083333,38.4475,Dorchester,Cambridge,MD,21613,17-GL-0893,201761598,9/12/2017,Marsh Establishment,115,0,130,0.0239,0.0239,8,NA,130,16,8,1
111181,2018,Real Investments LLC,38923 Burch Rd ,-76.7325,38.25972222,St. Mary's,Avenue,MD,20609,18-WL-0953,201861572,3/20/2019,Marsh Establishment,740,0.25,1100,0.2,0.45,18,2,1100,25,6,1
111185,2011,John and Jan Magnolia,559 Sawmill Lane ,-76.57833333,39.03416667,Anne Arundel,Crownsville,MD,21032,11-GL-0784,201160717,6/23/2011,Marsh Establishment,850,0.025,83,0.025,0.05,25,NA,140,33,8,1
111406,2022,Roger Kilmer,5815 Irish Creek Rd ,-76.202759,38.709747,Talbot,Royal Oak,MD,21662,22-GL-0004,202260002,3/28/2022,Marsh Establishment,210,0.0212,180,0.0212,0.0425,16,0.5,180,24,10,1
111559,2011,Ron and Jean Ruff,140 Governors Way South ,-76.16,38.95388889,Queen Anne's,Queenstown,MD,21658,11-GL-0672,201160519,5/4/2011,Marsh Establishment,80,0,120,0.085,0.085,28,NA,120,35,7,1
111929,2017,Stephen and Ellen Exelbert,6868 Thorneton Rd ,-76.19638889,38.73805556,Talbot,Royal Oak,MD,21662,17-GL-0794,201761398,9/29/2017,Marsh Establishment,140,0.0258,180,0.0201,0.0459,16.5,NA,180,24,9,1
112058,2012,G I Rupert Lore  And  Sons Inc,49944 Airedele Rd ,-76.34666667,38.11861111,St. Mary's,Ridge,MD,20680,12-WL-1124,201261125,1/30/2013,Marsh Establishment,900,8250,680,8250,16500,43,NA,680,43,8,1
112058,2016,Airedele Road LLC,49944 Airedele Rd ,-76.34694444,38.11861111,St. Mary's,Ridge,MD,20680,16-WL-0727,201661270,7/27/2017,Marsh Establishment,221,0.13,350,0.08,0.21,25,NA,560,63,18,2
112058,2019,Airedele Road LLC,49944 Airedele Rd ,-76.34722222,38.11916667,St. Mary's,Ridge,MD,20680,19-WL-0570,201960880,4/12/2021,Marsh Creation,1100,NA,505,NA,NA,25,1.5,505,25,5,1
112182,2017,Eric and Dana Siegel,304 Dolphin St ,-75.07972222,38.35,Worcester,Ocean City,MD,21842,17-GP-0618,201761072,7/11/2017,Marsh Establishment,9,0.005,60,0.005,0.011,8,NA,60,12,4,1
112355,2020,Mary Bloom,2841 Cox Neck Drive ,-76.29888889,38.91666667,Queen Anne's,Chester,MD,21619,20-GL-0534,202060821,7/22/2020,Marsh Establishment,13,0.0037,165,0.0037,0.0074,2,1,155,5,3,1
112415,2012,Londontown Property Owners Association-Beach #4,Shore Drive At Bentley Road ,-76.54277778,38.93222222,Anne Arundel,Edgewater,MD,21037,12-GL-0589,201260166,3/8/2012,Marsh Establishment,200,0.014,190,0.037,0.051,11.57,NA,110,62,24,2
112415,2016,Londontown Property Owners Association-Beach #4,906 Shore Drive  ,-76.54055556,38.93472222,Anne Arundel,Edgewater,MD,21037,16-GL-0452,201660777,7/20/2016,Marsh Establishment,200,0.0298,80,0.0298,0.0597,25,NA,122,70,24,2
112504,2012,David and Kathryn Schulke,1102 Magothy Circle ,-76.43305556,39.03861111,Anne Arundel,Annapolis,MD,21409,12-GL-1106,201261092,9/6/2012,Marsh Establishment,25,0,85,0.0156,0.0156,8,NA,93,20,6,1
112517,2012,Bradley Voorhees,791 Powhatan Beach Road ,-76.55527778,39.14416667,Anne Arundel,Pasadena,MD,21122,12-GL-0003,201161006,9/21/2011,Marsh Establishment,0,0.0074,53,0.0098,0.0172,15,NA,53,20,5,1
112604,2020,Richard Kent Schwab,26631 North Point Road ,-76.15361111,38.71777778,Talbot,Easton,MD,21601,20-GL-0054,202060085,4/13/2020,Marsh Establishment,100,0,50,0.009,0.009,12,0.5,95,30,14,2
112785,2015,Peter Marx,2756 Poplar Ln ,-76.57777778,38.96861111,Anne Arundel,Annapolis,MD,21401,15-GL-0084,201560168,8/7/2015,Marsh Establishment,37,0.0152,48,0.0076,0.0227,20,NA,59,70,12,2
114013,2022,"Robert McWilliams, Jr",24718 Beverly Road ,-76.219826,38.763447,Talbot,Saint Michaels,MD,21663,22-GL-0785,202261243,1/18/2023,Marsh Establishment,33,0,120,0.0204,0.0204,8,0.63,100,15,8,1
114333,2014,"Rich, Warren",27549 Ashby Dr ,-76.12277778,38.82083333,Talbot,Easton,MD,21601,14-GL-0711,201461280,11/13/2014,Marsh Establishment,166,0,300,0.138,0.138,25,NA,300,25,5,1
114516,2012,Deborah Underhill,1624 Winchester Road ,-76.50166667,39.01361111,Anne Arundel,Annapolis,MD,21401,12-GL-0810,201260598,5/16/2012,Marsh Establishment,35,0,95,0.01,0.01,10,NA,25,13,3,1
114890,2020,Phoebe Reynolds,28080 Brick Row Dr ,-76.10861111,38.67527778,Talbot,Oxford,MD,21654,20-GL-0287,202060468,6/29/2020,Marsh Establishment,102,0.014,111,0.021,0.035,23,0,111,35,13,1
115317,2016,Hubert Bishop,1737 St. Margarets Road ,-76.47,39.01388889,Anne Arundel,Annapolis,MD,21409,16-GL-0191,201660333,12/22/2016,Marsh Establishment,42,0.022,175,0.024,0.046,13,NA,175,18,5,1
115459,2013,Russell Queen,11039 Piney Island Drive ,-75.1775,38.41111111,Worcester,Bishopville,MD,21813,13-GL-0665,201361185,9/6/2013,Marsh Establishment,45,0,202,0.0464,0.0464,10,NA,202,14,4,1
115595,2023,Alan Kistler,"764 Holly Dr, N ",-76.437714,39.019633,Anne Arundel,Annapolis,MD,21409,23-GL-0663,202361042,9/29/2023,Marsh Establishment,1,0.0298,130,0.0298,0.0597,20,1,130,27,10,1
115801,2016,Tara Balfe Clifford,124 Park Ave ,-76.57083333,38.95,Anne Arundel,Edgewater,MD,21037,16-GL-0117,201660206,2/26/2016,Marsh Establishment,200,0.029,180,0.04,0.069,17,NA,185,120,44,4
116204,2012,Frank Lang,6229 South Point Rd ,-75.19555556,38.23027778,Worcester,Berlin,MD,21811,12-GL-0602,201260181,5/11/2012,Marsh Establishment,12,0.016,165,0,0.016,5,NA,NA,NA,NA,NA
116376,2012,Paul and Sharon Ostrye,5205 Heron Rd ,-76.18194444,38.53388889,Dorchester,Cambridge,MD,21613,12-GL-0547(R1),201260055,7/29/2014,Marsh Establishment,17,0.007,52,0.007,0.014,15,NA,52,21,5.8,1
116693,2020,Robert and Lisa Craig,"7704 Bloomfield Rd, 38.760556, -76.119167",-76.11888889,38.76055556,Talbot,Easton,MD,21601,20-GL-0204,202060325,3/19/2020,Marsh Establishment,80,0.0258,160,0.0164,0.0422,11,0.5,160,21,9,1
116782,2019,Murphy Bay LLC,111 Murphy Lane ,-76.19805556,38.90055556,Queen Anne's,Grasonville,MD,21638,19-GL-0786,201961260,11/15/2019,Marsh Establishment,370,0.0567,200,0.0567,0.1143,24,1,200,35,10,1
116799,2013,Sarah Callanan,1605 Calvert Road ,-76.25722222,38.92861111,Queen Anne's,Chester,MD,21619,13-GL-0068,201261415,2/12/2013,Marsh Establishment,20,0.009,50,0,0.009,15,NA,NA,NA,NA,NA
116804,2016,Richard and Joanne Lang,616 Cape Mckinsey Rd ,-76.52388889,39.07388889,Anne Arundel,Severna Park,MD,21146,16-GL-0037,201660074,4/20/2016,Marsh Establishment,25,0.003,17,0.001,0.004,13,NA,NA,NA,NA,NA
116804,2020,Richard and Joanne Lang,616 Cape Mckinsey Rd ,-76.52388889,39.07416667,Anne Arundel,Severna Park,MD,21146,20-GL-0206,202060331,10/28/2020,Marsh Establishment,52,0.02,80,0.017,0.037,22,0.1,110,30,NA,1
116861,2013,Susette Windsor,6641 Ellenborough Road ,-76.10777778,38.73222222,Talbot,Easton,MD,21601,13-GL-0910,201361639,1/13/2014,Marsh Establishment,760,0.0764,335,0.124,0.2004,23.3,NA,335,34.5,11.2,1
116868,2019,Chadwick Properties,8340 Wooddy Rd ,-77.03694444,38.48194444,Charles,Port Tobacco,MD,20677,19-GL-0325,201960466,6/24/2019,Marsh Establishment,70,0.043,253,0.043,0.086,15,1,253,28,35,1
116960,2008,Best Industries Inc/cedar Cove Pud/,End Of Long La ,-76.40277778,38.25722222,St. Mary's,Lexington Park,MD,NA,08-WL-0105,200763586,2/1/2012,Marsh Establishment,69000,0.74,2000,0.08,0.83,47.5,NA,NA,NA,NA,NA
117237,2021,Neil Weissman,721 Harness View Creek Dr ,-76.508641,38.941561,Anne Arundel,Annapolis,MD,21403,21-GL-0567 (R1),202160787,8/22/2023,Marsh Establishment,30,0.006,21,0.004,0.01,21,NA,NA,NA,NA,NA
117370,2013,Per Farm LLC,6077 Boston Cliff Rd ,-76.01166667,38.72027778,Talbot,Trappe,MD,21673,13-GL-1146,201362094,2/5/2014,Marsh Establishment,532,0.03,185,0.068,0.098,25,NA,205,35,10,1
117387,2013,John Wagner,222 Harbor Drive ,-76.4325,38.33722222,Calvert,Lusby,MD,20657,13-GL-0328,201360577,5/23/2013,Marsh Establishment,25,0.012,70,0.012,0.024,15,NA,80,35,6,1
117660,2011,Andrew and Emily Kaiser,24212 Comegys Bight Lane ,-76.13138889,39.12305556,Kent,Chestertown,MD,21620,11-GL-0738(R1),201160630,5/3/2013,Marsh Establishment,40,0.023,90,0.023,0.046,2,NA,210,23,7,2
117669,2022,John Jarvis,12242 Greenridge Lane Rd ,-75.130855,38.33419,Worcester,Ocean City,MD,21842,22-GL-1070,202261667,5/3/2023,Marsh Establishment,145,0.0499,285,0.0471,0.1211,16,0,320,35,8,1
118527,2015,William and Barbara Flook,23746 Lovely Ln ,-76.14666667,39.14222222,Kent,Chestertown,MD,21620,15-GL-0342,201560627,6/19/2015,Marsh Establishment,205,0.096,295,0.115,0.211,20,NA,305,70,18,2
118738,2021,"West Haven Home Owners Assn, Inc","Tolstoy Ln, Stewarts Landing ",-76.536376,39.096003,Anne Arundel,Severna Park,MD,21146,21-GL-1161,202161679,10/19/2023,Marsh Establishment,57,0.02,130,0.02,0.04,35,2,56,56,46,2
118824,2011,Edwin Fee,161 Berrywood Dr ,-76.54361111,39.08638889,Anne Arundel,Severna Park,MD,21146,11-GL-0683,201160552,6/1/2011,Marsh Establishment,29,0.009,52,0.009,0.018,15,NA,77,20,15,1
118826,2013,Phyllis Gilbert,155 Topeg Drive ,-76.54277778,39.08555556,Anne Arundel,Severna Park,MD,21146,13-GL-0264,201360467,6/11/2013,Marsh Establishment,35,0,35,0.006,0.006,8,NA,NA,NA,NA,NA
118832,2018,Michael Peterson,191 Topeg Drive ,-76.54027778,39.08611111,Anne Arundel,Severna Park,MD,21146,18-GL-0165,201860278,6/1/2018,Marsh Establishment,100,0.0126,130,0.0103,0.023,22,1,135,26,8,1
119216,2017,Timothy Schadt and Amy Nicholson,7480 River Rd ,-75.7475,38.08722222,Somerset,Westover,MD,21871,17-GL-1182,201762144,2/12/2018,Marsh Establishment,20,0.0275,100,0.0275,0.055,24,NA,100,35,8,1
119239,2010,Bert Collison,7047 Pea Neck Rd ,-76.19916667,38.74361111,Talbot,Saint Michaels,MD,21663,10-GL-0985,201060800,6/21/2010,Marsh Creation,40,NA,35,NA,NA,35,NA,NA,NA,NA,NA
119469,2015,Broadview Estates Community Association Inc,"Broadview Dr, Community Rec Area ",-76.575032,38.968073,Anne Arundel,Annapolis,MD,21401,15-GL-0577,201561015,10/14/2015,Marsh Establishment,8,0,45,0.0047,0.0047,4.5,NA,37,28,12,2
119782,2011,Robert and Juanita Baker,5695 Pirates Cove Road ,-76.11777778,38.70833333,Talbot,Oxford,MD,21654,11-WL-0261,201061412,6/22/2011,Marsh Establishment,75,0,270,0.0628,0.0628,12,NA,270,40,10,1
120522,2014,Robert Sensenig,12513 Arrow Park Drive ,-77.01305556,38.72166667,Prince George's,Fort Washington,MD,20744,14-GL-0899,201461638,12/15/2014,Marsh Establishment,40,0.009,63,0.009,0.018,12,NA,63,18,6,1
120669,2019,Martha Witt,1464 Snug Harbor Rd ,-76.510501,38.842739,Anne Arundel,Shady Side,MD,20764,19-GL-0243,201960335,12/30/2019,Marsh Establishment,95,0.0121,95,0.0108,0.0229,13,0.25,100,18,5,1
120669,2023,Martha Witt,1464 Snug Harbor Rd ,-76.510446,38.84261,Anne Arundel,Shady Side,MD,20764,23-GL-0264,202360417,4/20/2023,Marsh Establishment,95,0.012,100,0.011,0.023,13,0.25,100,18,3,1
120770,2010,Carroll Hoshall,521 Broadwater Rd ,-76.49027778,39.06277778,Anne Arundel,Arnold,MD,21012,10-GL-0678,201060344,6/7/2010,Marsh Creation,155,NA,150,NA,NA,35,NA,NA,NA,NA,NA
121232,2019,Lundeberg Md Seamanship School,45550 Joeys Way ,-76.49861111,38.16055556,St. Mary's,Valley Lee,MD,20692,19-GL-1317,201962200,2/26/2020,Marsh Establishment,340,0.069,400,0.069,0.138,15,1,400,25,9,1
121275,2013,Dwight Zilinskas,332 1/2 Riverside Road ,-76.55277778,38.94472222,Anne Arundel,Edgewater,MD,21037,13-GL-0736,201361186,12/2/2013,Marsh Establishment,40,0.008,157,0.017,0.025,7,NA,197,75,58,6
121592,2011,Homeport On Winchester Creek HOA,110 Starboard Ct ,-76.2025,38.96805556,Queen Anne's,Grasonville,MD,21638,11-GL-0316,201061513,1/9/2011,Marsh Establishment,130,0.02,115,0.02,0.04,20,NA,NA,NA,NA,NA
121625,2021,Cynthia Huebler,5177 Mountain Rd ,-76.426296,39.088706,Anne Arundel,Pasadena,MD,21122,21-GL-1138,202161615,4/25/2022,Marsh Establishment,90,0.021,100,0.017,0.038,20,1,150,30,11.5,1
121798,2020,John Borneman,4782 Sailors Retreat Rd ,-76.105729,38.679079,Talbot,Oxford,MD,21654,20-GL-1555 (R1),202062106,11/4/2022,Marsh Establishment,1122,0.1391,499,0.1391,0.2781,28,0.62,449,35,16,1
122663,2012,David Parry,223 Wiltshire Lane ,-76.52777778,39.07444444,Anne Arundel,Severna Park,MD,21146,12-GL-0306,201161529,12/29/2011,Marsh Establishment,110,0.29,190,0.029,0.05,20,NA,NA,NA,NA,NA
122847,2010,"Santa, Karen/revetment, Groins  And  Living","77 Wallace Manor Rd, Edgewater Md 21037 ",-76.55583333,38.96277778,Anne Arundel,Edgewater,MD,NA,10-GL-0011,200961821,7/16/2010,Marsh Establishment,260,0.025,135,0.02,0.045,30,NA,NA,NA,NA,NA
123358,2021,David & Caroline Houck,991 Melvin Rd ,-76.524999,38.943383,Anne Arundel,Annapolis,MD,21403,21-GL-1448,202162077,1/20/2022,Marsh Establishment,39,0,41,0.02,0.02,24,1,45,35,13,1
123908,2014,Amelia Wright,1511 Town Point Rd ,-76.19027778,38.53055556,Dorchester,Cambridge,MD,21613,14-GL-0078,201460162,3/24/2014,Marsh Establishment,140,0.066,320,0.037,0.103,15,NA,320,17,2,1
124280,2020,Donna Kiffe,25968 Goose Neck Road ,-76.17611111,38.71583333,Talbot,Royal Oak,MD,21662,20-GL-0039,202060066,3/11/2020,Marsh Establishment,14,0.0116,115,0.0116,0.023,11,0.5,105,15,9.5,1
124303,2021,Gerard Ewancio,12591 Eagles Nest Rd ,-75.117009,38.304229,Worcester,Berlin,MD,21811,21-GL-0776,202161082,7/27/2022,Marsh Establishment,71,0.0174,270,0.0226,0.04,6.34,0.5,255,10,3.66,1
124752,2016,Elizabeth Billingsley,29201 Glencoe Rd ,-75.95055556,39.35666667,Kent,Kennedyville,MD,21645,16-GL-0426,201660711,11/18/2016,Marsh Establishment,325,0.047,165,0.044,0.09,24,NA,NA,NA,NA,NA
124798,2022,David and Carol Flanagan,2077 Maidstone Farm Rd ,-76.450048,38.995408,Anne Arundel,Annapolis,MD,21409,22-WL-0448,202260791,9/14/2022,Marsh Establishment,1590,0,530,0.209,0.209,81,2.5,460,85,34,2
124825,2022,1731 Partners Trust ,725 Lands End Rd ,-76.086146,39.125075,Queen Anne's,Centreville,MD,21617,22-WL-1290,202262020,10/18/2023,Marsh Establishment,NA,0.0562,430,0.0031,0.0593,8,3.2,415,104,48,4
124833,2013,Gregory Wilby,970 Melvin Road ,-76.52611111,38.94694444,Anne Arundel,Annapolis,MD,21403,13-GL-0958,201361739,2/5/2014,Marsh Establishment,36,0.0035,25,0.0033,0.0068,18,NA,NA,NA,NA,NA
124876,2010,"Mattingly, William",24250 Windy Ct ,-76.51805556,38.33305556,St. Mary's,Hollywood,MD,20636,10-GL-0567,201060151,7/13/2010,Marsh Creation,43,NA,50,NA,NA,16,NA,NA,NA,NA,NA
124981,2022,Harry Broadman,25553 Bushey Heath Road ,-76.191126,38.747388,Talbot,Royal Oak,MD,21662,22-GL-0516,202260814,7/28/2022,Marsh Establishment,65,0.0115,95,0.0115,0.023,14,0.5,95,21,8,1
125007,2019,Robin Ingle,1970 Potts Pt Rd ,-76.669983,38.563145,Calvert,Huntingtown,MD,20639,19-GL-1188,201961993,4/17/2020,Marsh Establishment,60,0.027,371,0.027,0.054,6,1.5,395,21,15,1
125149,2020,Linstead Community Association,33 Boone Trail ,-76.557016,39.063879,Anne Arundel,Severna Park,MD,21146,20-GL-1405,202061931,12/14/2021,Marsh Establishment,20,0,74,0.017,0.017,24,0,93,24,NA,1
125176,2009,Do Dpw/elliott Island Rd/living,"Elliott Island Rd, Vienna Md 21869 ",-75.98861111,38.31416664,Dorchester,Vienna,MD,NA,09-WL-1073(R),200961648,11/5/2010,Marsh Establishment,NA,2.1,3980,11.15,13.25,160,NA,NA,NA,NA,NA
125276,2012,Matthew and Michelle Wolf,27625 Parkway Rd ,-76.11972222,38.79694444,Talbot,Easton,MD,21601,12-GL-0527,201260034,3/30/2012,Marsh Establishment,69,0,120,0.0468,0.0468,17,NA,120,35,13,1
125283,2015,Mark Foley,22742 Colonel Leonard Rd ,-76.18277778,39.13666667,Kent,Rock Hall,MD,21661,15-GL-0072,201560139,4/27/2015,Marsh Establishment,120,0.041,170,0.059,0.1,25,NA,200,32,7.5,1
125286,2020,Pickering Creek Audubon Center,11450 Audubon Ln ,-76.11527778,38.86583333,Talbot,Easton,MD,21601,20-WL-0865,202061293,3/31/2021,Marsh Establishment,1550,0.155,615,0.155,0.32,41,NA,NA,NA,NA,NA
125361,2022,Southwind Lot Owners Assoc,"2900 Cox Neck Road, Parcel 6, Section 2",-76.296043,38.908534,Queen Anne's,Chester,MD,21619,22-GL-1038,202261614,11/16/2022,Marsh Establishment,40,0.0126,110,0.0126,0.0253,10,1,110,9,4,1
125370,2019,Michael and Wendy Perraut,40884 Lake & Breton View Dr ,-76.66277778,38.26027778,St. Mary's,Leonardtown,MD,20650,19-GL-0927,201961523,11/7/2019,Marsh Establishment,5,0,14,6.00E-04,6.00E-04,2,1.5,14,17,5,1
125389,2018,Glenn and Kimberly Baker,8845 Kemp Rd ,-76.11805556,38.79305556,Talbot,Easton,MD,21601,18-GL-0417,201860691,6/22/2018,Marsh Establishment,462,0.072,275,0.072,0.143,22,0.5,300,35,13,1
125392,2012,Martha Keating,1835 White Haven Rd ,-76.15805556,38.50222222,Dorchester,Church Creek,MD,21622,12-GL-0021,201161032,4/24/2012,Marsh Establishment,52,0,212,0.014,0.014,3,NA,212,10,5,1
125485,2011,MPA-Masonville Marine Terminal,3000 Childs St ,-76.59694444,39.24416667,Baltimore City,Baltimore City,MD,NA,11-WL-0426,201160048,8/31/2011,Marsh Establishment,1833,0.43,911,0.21,0.64,30,NA,665,79,19,1
125500,2020,Jonathan Jarow and Jennifer Bragg,26921 Rigby Lot Rd ,-76.14333333,38.74388889,Talbot,Royal Oak,MD,21662,20-GL-0081,202060125,5/7/2020,Marsh Establishment,415,0.0857,455,0.0857,0.171,27,0.5,410,35,8,1
125503,2022,Daniel Abercrombie,36 Harrys Ln ,-75.95969,39.484976,Cecil,North East,MD,21901,22-GL-0043,202260089,7/14/2022,Marsh Establishment,40,0.0114,80,0.0114,0.0228,16.5,1.5,150,30,13.5,1
125586,2012,Gregg Behling,1880 Luce Creek Drive ,-76.51944444,39.00333333,Anne Arundel,Annapolis,MD,21401,12-GL-0359,201161635,1/21/2012,Marsh Establishment,80,0.02,170,0.02,0.04,15,NA,NA,NA,NA,NA
125648,2020,Joseph and Jill Kale,12265 Potomac View Dr ,-76.885523,38.277035,Charles,Newburg,MD,20664,20-GL-1301,202061902,1/22/2021,Marsh Establishment,0,0.005,32,0.005,0.01,10,2,32,10,10,1
125656,2014,Frederick and Gretchen Knowles,209 Larson Lane ,-76.05611111,39.2075,Kent,Chestertown,MD,21620,14-GL-0229,201460406,6/2/2014,Marsh Establishment,120,0.025,100,0.025,0.05,23,NA,155,35,15,1
125760,2015,Michael Broglie,5739 Shore Dr ,-76.526791,38.794721,Anne Arundel,Churchton,MD,20733,15-GL-0252,201560459,8/6/2015,Marsh Establishment,55,0.009,60,0.009,0.018,10,NA,60,32,10,1
125837,2022,Talbot Country Club Inc,6142 Country Club Rd ,-76.09743,38.716025,Talbot,Easton,MD,21601,22-GL-0231,202260393,5/25/2022,Marsh Establishment,264,0.054,360,0.054,0.108,14,0.5,320,21,7,1
125853,2019,Lindley Grubbs,16045 Camp Merryelande Rd ,-76.47583333,38.10638889,St. Mary's,Piney Point,MD,20674,19-GL-0694,201961067,8/14/2019,Marsh Establishment,66,0.008,180,0,0.008,2,2,180,10,8,1
125883,2019,Michael Taddei,"Annie Ln, Lot 4 ",-76.13555556,38.54055556,Dorchester,Cambridge,MD,21613,19-GL-1130 (R1),201961911,6/5/2020,Marsh Establishment,100,0,100,0.039,0.039,20,0.5,90,35,8,1
125929,2013,OC LOLA LLC-Mackys Bayside,5311 Coastal Hwy ,-75.07083333,38.37888889,Worcester,Ocean City,MD,21842,13-WL-0130,201360215,6/26/2013,Marsh Establishment,33,0.0023,20,0.0023,0.0046,10,NA,NA,NA,NA,NA
125970,2012,Two Rivers Yacht Basin,64 Two Rivers Lane ,-75.90416667,39.48777778,Cecil,Chesapeake City,MD,21915,12-GL-1216,201261298,11/20/2012,Marsh Establishment,90,0.027,180,0.045,0.072,26,NA,188,26,6,1
126022,2013,Andre Van Hoek,27689 Waverly Rd ,-76.11694444,38.75166667,Talbot,Easton,MD,21601,13-GL-0571,201361012,9/30/2013,Marsh Establishment,415,0,498,0.1722,0.1722,15,NA,498,35,15,1
126207,2013,Alan and Deborah Brecher,28564 Gilnock Road ,-76.08611111,38.73333333,Talbot,Easton,MD,21601,13-GL-0279,201360493,5/9/2013,Marsh Establishment,40,0,250,0.023,0.023,4,NA,NA,NA,NA,NA
126276,2009,"Valliant, John/living Shoreline/pier,","8909 Bazman Neavitt Rd, Bozman Md 21612 ",-76.2694445,38.77305558,Talbot,Bozman,MD,NA,09-GL-1025(R),200961466,6/16/2011,Marsh Establishment,300,0.075,344,0.075,0.15,20,NA,344,23,16,1
126423,2018,Miles-A-Way Farm LLC,10443 Sherwood Manor Dr ,-76.25777778,38.83555556,Talbot,Claiborne,MD,21624,18-WL-0072,201860141,6/4/2018,Marsh Establishment,342,0,135,0.0533,0.0533,77,-1.2,153,151,28,2
126437,2017,Richard Carmine,10448 Cassandra Dr ,-75.94611111,38.17,Somerset,Chance,MD,21821,17-GL-1231,201762204,2/26/2018,Marsh Establishment,135,0.0344,125,0.0344,0.0688,24,NA,125,35,10,1
126460,2010,James Franklin Hanson,Russell Road ,-76.52972222,38.1825,St. Mary's,Valley Lee,MD,20692,10-GL-0901,201060678,8/5/2010,Marsh Creation,280,NA,440,NA,NA,25,NA,NA,NA,NA,NA
126474,2011,John Lonergan,401 Sullivan Farm Lane ,-76.31805556,38.92194444,Queen Anne's,Stevensville,MD,21666,11-GL-0658,201160500,8/25/2011,Marsh Establishment,75,0.024,105,0.024,0.05,25,NA,75,30,10,1
126592,2018,Sharon Denny,8639 North Bend Cir ,-76.125,38.78333333,Talbot,Easton,MD,21601,18-GL-0130,201860238,4/16/2018,Marsh Establishment,70,0.0145,125,0.0145,0.029,11,0.5,115,15,4,1
126631,2009,Qa Comm/ferry Point/living Shoreline,Swan Cove Lane ,-76.24805556,38.97944444,Queen Anne's,Chester,MD,NA,09-WL-1008,200961405,7/9/2012,Marsh Establishment,18000,1.1249,4600,1.1364,2.2613,94,NA,1146,106,16,2
126685,2012,Ronald and Susan Grudziecki,6308 Hopkins Neck Road ,-76.16611111,38.72916667,Talbot,Easton,MD,21601,12-GL-0597,201260174,4/18/2012,Marsh Establishment,20,0,215,0.0156,0.0156,3,NA,NA,NA,NA,NA
126685,2017,Richard and Carroll Vicens,6308 Hopkins Neck Road ,-76.17027778,38.72,Talbot,Easton,MD,21601,17-GL-0020(R1),201760030,8/15/2017,Marsh Establishment,34,0.142,150,0.142,0.284,10.2,NA,130,16,8,1
126921,2018,Peter Carroccio,40111 Army Way ,-76.69111111,38.26805556,St. Mary's,Leonardtown,MD,20627,18-GL-0699 (R1),201861174,8/16/2021,Marsh Establishment,400,0.086,375,0.086,0.172,20,1.5,375,25,5,1
126954,2009,Southdown Shores Community Assn/living,Landing Rd ,-76.57305558,38.94166667,Anne Arundel,Edgewater,MD,NA,09-GL-0995,200961353,6/25/2009,Marsh Establishment,NA,0.09,319,0.09,0.18,27,NA,NA,NA,NA,NA
127051,2021,Andrew Amrhein III,2114 Janer Dr ,-76.431807,39.131881,Anne Arundel,Pasadena,MD,21122,21-WL-0612,202160849,9/30/2023,Marsh Establishment,288,0.043,150,0.055,0.098,50,2,100,91,20,1
127096,2022,Augustus Stern,994 Melvin Rd ,-76.527304,38.945699,Anne Arundel,Annapolis,MD,21403,22-WL-0791,202261250,8/22/2023,Marsh Establishment,65,0.021,235,0.021,0.042,32,1,88,40,16.5,2
127262,2014,Ruth Shaw,258 Long Point Rd ,-76.56166667,39.04972222,Anne Arundel,Crownsville,MD,21032,14-GL-0047,201460088,3/20/2014,Marsh Establishment,100,0.02,90,0.02,0.04,17,NA,105.5,25,8,1
127300,2013,Sappington Jr Family Trust,1634 Concordia Dr ,-76.44861111,39.10277778,Anne Arundel,Pasadena,MD,21122,13-GL-1022,201361862,12/18/2013,Marsh Establishment,200,0.05,155,0.05,0.1,35,NA,NA,NA,NA,NA
127400,2019,Neil MacBride,985 Marzoff Rd ,-76.53361111,38.78027778,Anne Arundel,Deale,MD,20751,19-WL-0838,201961365,12/23/2019,Marsh Establishment,395,0.122,906,0,0.122,6,2,466,58,21,1
127475,2022,Alexandra Nammack,7962 Lee Haven Rd ,-76.113902,38.767621,Talbot,Easton,MD,21601,22-GL-1163,202261824,1/10/2023,Marsh Establishment,57,0.0178,100,0.0178,0.0355,16,0.5,90,24,8,1
127517,2017,James Christian Little,1725 Brannocks Neck Rd ,-76.169435,38.522588,Dorchester,Cambridge,MD,21613,17-GL-0491,201760849,7/13/2017,Marsh Establishment,70,0.008,140,0.008,0.016,10,NA,110,20,9.5,1
127561,2022,MD DNR - Deal Island Wildlife Management Area,"S Of Deal Island Wildlife Mgmt Area, 38.151601 -75.903185",-75.902315,38.150363,Somerset,Dames Quarter,MD,21821,22-WL-0222,202260382,9/15/2022,Marsh Establishment,19320,11.96,NA,64.3,76.26,NA,NA,NA,NA,NA,NA
127631,2009,"Knowlton, Scott/living Shoreline, Pier,",203 Breezy Creek Ct ,-75.13027781,38.36416667,Worcester,Ocean Pines,MD,NA,09-GP-0957,200961225,9/29/2010,Marsh Establishment,12,0.0055,40,0.0055,0.011,12,NA,NA,NA,NA,NA
127660,2020,Eric Wells,1275 Hollidge Rd ,-76.435,38.3375,Calvert,Lusby,MD,20657,20-GL-0195 (R1),202060316,11/22/2021,Marsh Establishment,16,0.009,55,0.009,0.018,15,1,55,21,6,1
127709,2016,Michael Ference,7768 Ratcliffe Manor Rd ,-76.11,38.76138889,Talbot,Easton,MD,21601,16-GL-0091,201660171,3/29/2016,Marsh Establishment,100,0,70,0.028,0.028,25,NA,70,35,8,1
